city_ascii,lat,lng,country,iso2,iso3,admin_name,capital
Faizabad,37.1298,70.5792,Afghanistan,AF,AFG,Badakhshān,admin
Qal`ah-ye Now,34.983,63.1333,Afghanistan,AF,AFG,Bādghīs,admin
Baghlan,36.1393,68.6993,Afghanistan,AF,AFG,Baghlān,minor
Pul-e Khumri,35.9511,68.7011,Afghanistan,AF,AFG,Baghlān,admin
Mazar-e Sharif,36.7,67.1,Afghanistan,AF,AFG,Balkh,admin
Balkh,36.7501,66.8997,Afghanistan,AF,AFG,Balkh,minor
Bamyan,34.8211,67.521,Afghanistan,AF,AFG,Bāmyān,admin
Nili,33.7218,66.1302,Afghanistan,AF,AFG,Dāykundī,admin
Farah,32.3917,62.0968,Afghanistan,AF,AFG,Farāh,admin
Maimanah,35.9302,64.7701,Afghanistan,AF,AFG,Fāryāb,admin
Andkhoy,36.9317,65.1015,Afghanistan,AF,AFG,Fāryāb,minor
Ghazni,33.5633,68.4178,Afghanistan,AF,AFG,Ghaznī,admin
Fayroz Koh,34.5167,65.25,Afghanistan,AF,AFG,Ghōr,admin
Lashkar Gah,31.583,64.36,Afghanistan,AF,AFG,Helmand,admin
Herat,34.33,62.17,Afghanistan,AF,AFG,Herāt,admin
Karukh,34.4868,62.5918,Afghanistan,AF,AFG,Herāt,minor
Shibirghan,36.658,65.7383,Afghanistan,AF,AFG,Jowzjān,admin
Kabul,34.5167,69.1833,Afghanistan,AF,AFG,Kābul,primary
Kandahar,31.61,65.6949,Afghanistan,AF,AFG,Kandahār,admin
Mahmud-e Raqi,35.0167,69.3333,Afghanistan,AF,AFG,Kāpīsā,admin
Khost,33.3395,69.9204,Afghanistan,AF,AFG,Khōst,admin
Asadabad,34.866,71.15,Afghanistan,AF,AFG,Kunaṟ,admin
Kunduz,36.728,68.8725,Afghanistan,AF,AFG,Kunduz,admin
Mehtar Lam,34.65,70.1667,Afghanistan,AF,AFG,Laghmān,admin
Pul-e `Alam,33.9953,69.0227,Afghanistan,AF,AFG,Lōgar,admin
Baraki Barak,33.9667,68.9667,Afghanistan,AF,AFG,Lōgar,minor
Jalalabad,34.4415,70.4361,Afghanistan,AF,AFG,Nangarhār,admin
Zaranj,31.112,61.887,Afghanistan,AF,AFG,Nīmrōz,admin
Parun,35.4206,70.9226,Afghanistan,AF,AFG,Nūristān,admin
Sharan,33.1757,68.7304,Afghanistan,AF,AFG,Paktīkā,admin
Zarghun Shahr,32.85,68.4167,Afghanistan,AF,AFG,Paktīkā,
Gardez,33.6001,69.2146,Afghanistan,AF,AFG,Paktiyā,admin
Bazarak,35.3129,69.5152,Afghanistan,AF,AFG,Panjshir,admin
Charikar,35.0183,69.1679,Afghanistan,AF,AFG,Parwān,admin
Aibak,36.261,68.04,Afghanistan,AF,AFG,Samangān,admin
Sar-e Pul,36.2154,65.9325,Afghanistan,AF,AFG,Sar-e Pul,admin
Taluqan,36.73,69.54,Afghanistan,AF,AFG,Takhār,admin
Tarin Kot,32.6333,65.8667,Afghanistan,AF,AFG,Uruzgān,admin
Maidan Shahr,34.3956,68.8662,Afghanistan,AF,AFG,Wardak,admin
Kotah-ye `Ashro,34.45,68.8,Afghanistan,AF,AFG,Wardak,
Qalat,32.1123,66.8868,Afghanistan,AF,AFG,Zābul,admin
Berat,40.71,19.972,Albania,AL,ALB,Berat,admin
Corovode,40.5167,20.2333,Albania,AL,ALB,Berat,
Peshkopi,41.6833,20.4333,Albania,AL,ALB,Dibër,admin
Burrel,41.626,20.016,Albania,AL,ALB,Dibër,
Durres,41.3178,19.4482,Albania,AL,ALB,Durrës,admin
Kruje,41.519,19.797,Albania,AL,ALB,Durrës,
Elbasan,41.1215,20.0838,Albania,AL,ALB,Elbasan,admin
Librazhd,41.2,20.3667,Albania,AL,ALB,Elbasan,
Gramsh,40.8667,20.2,Albania,AL,ALB,Elbasan,
Fier,40.73,19.573,Albania,AL,ALB,Fier,admin
Lushnje,40.94,19.716,Albania,AL,ALB,Fier,
Gjirokaster,40.079,20.149,Albania,AL,ALB,Gjirokastër,admin
Tepelene,40.2833,20.0333,Albania,AL,ALB,Gjirokastër,
Permet,40.234,20.352,Albania,AL,ALB,Gjirokastër,
Korce,40.6167,20.7667,Albania,AL,ALB,Korçë,admin
Pogradec,40.9,20.664,Albania,AL,ALB,Korçë,
Erseke,40.3333,20.6833,Albania,AL,ALB,Korçë,
Kukes,42.083,20.434,Albania,AL,ALB,Kukës,admin
Bajram Curri,42.3333,20.0833,Albania,AL,ALB,Kukës,
Lezhe,41.788,19.654,Albania,AL,ALB,Lezhë,admin
Rreshen,41.7833,19.8167,Albania,AL,ALB,Lezhë,
Shkoder,42.0685,19.5188,Albania,AL,ALB,Shkodër,admin
Puke,42.0333,19.8833,Albania,AL,ALB,Shkodër,
Tirana,41.3275,19.8189,Albania,AL,ALB,Tiranë,primary
Vlore,40.4774,19.4982,Albania,AL,ALB,Vlorë,admin
Sarande,39.877,20,Albania,AL,ALB,Vlorë,
Adrar,27.87,-0.29,Algeria,DZ,DZA,Adrar,admin
Timimoun,29.2365,0.27,Algeria,DZ,DZA,Adrar,
Reggane,26.7,0.1666,Algeria,DZ,DZA,Adrar,
Ain Defla,36.2641,1.9679,Algeria,DZ,DZA,Aïn Defla,admin
Ain Temouchent,35.2975,-1.1404,Algeria,DZ,DZA,Aïn Temouchent,admin
Algiers,36.7631,3.0506,Algeria,DZ,DZA,Alger,primary
Annaba,36.92,7.76,Algeria,DZ,DZA,Annaba,admin
Batna,35.57,6.17,Algeria,DZ,DZA,Batna,admin
Bechar,31.6111,-2.23,Algeria,DZ,DZA,Béchar,admin
Abadla,31.0171,-2.7333,Algeria,DZ,DZA,Béchar,
Beni Ounif,32.0493,-1.2514,Algeria,DZ,DZA,Béchar,
Bejaia,36.7604,5.07,Algeria,DZ,DZA,Bejaïa,admin
Biskra,34.86,5.73,Algeria,DZ,DZA,Biskra,admin
Blida,36.4203,2.83,Algeria,DZ,DZA,Blida,admin
Bordj Bou Arreridj,36.059,4.63,Algeria,DZ,DZA,Bordj Bou Arréridj,admin
Bouira,36.3805,3.9,Algeria,DZ,DZA,Bouira,admin
Boumerdes,36.759,3.4748,Algeria,DZ,DZA,Boumerdes,admin
Chlef,36.1704,1.32,Algeria,DZ,DZA,Chlef,admin
Constantine,36.36,6.5999,Algeria,DZ,DZA,Constantine,admin
Djelfa,34.68,3.25,Algeria,DZ,DZA,Djelfa,admin
El Bayadh,33.6904,1.01,Algeria,DZ,DZA,El Bayadh,admin
El Oued,33.3704,6.86,Algeria,DZ,DZA,El Oued,admin
El Tarf,36.7672,8.3138,Algeria,DZ,DZA,El Tarf,admin
Ghardaia,32.49,3.67,Algeria,DZ,DZA,Ghardaïa,admin
El Golea,30.5666,2.8833,Algeria,DZ,DZA,Ghardaïa,
Guelma,36.466,7.428,Algeria,DZ,DZA,Guelma,admin
Illizi,26.4834,8.4666,Algeria,DZ,DZA,Illizi,admin
Djanet,24.5529,9.4823,Algeria,DZ,DZA,Illizi,
I-n-Amenas,28.0503,9.55,Algeria,DZ,DZA,Illizi,
Jijel,36.822,5.766,Algeria,DZ,DZA,Jijel,admin
Khenchela,35.4358,7.1433,Algeria,DZ,DZA,Khenchela,admin
Laghouat,33.81,2.88,Algeria,DZ,DZA,Laghouat,admin
M'Sila,35.7,4.545,Algeria,DZ,DZA,M’sila,admin
Mascara,35.4004,0.14,Algeria,DZ,DZA,Mascara,admin
Medea,36.2704,2.77,Algeria,DZ,DZA,Médéa,admin
Mila,36.4503,6.2644,Algeria,DZ,DZA,Mila,admin
Mostaganem,35.9404,0.09,Algeria,DZ,DZA,Mostaganem,admin
Naama,33.2667,-0.3167,Algeria,DZ,DZA,Naama,admin
Ain Sefra,32.7604,-0.5799,Algeria,DZ,DZA,Naama,
Oran,35.71,-0.62,Algeria,DZ,DZA,Oran,admin
Ouargla,31.97,5.34,Algeria,DZ,DZA,Ouargla,admin
Touggourt,33.1,6.06,Algeria,DZ,DZA,Ouargla,
Hassi Messaoud,31.7023,6.0545,Algeria,DZ,DZA,Ouargla,
Oum el Bouaghi,35.85,7.15,Algeria,DZ,DZA,Oum el Bouaghi,admin
Relizane,35.7373,0.556,Algeria,DZ,DZA,Relizane,admin
Saida,34.8404,0.14,Algeria,DZ,DZA,Saïda,admin
Setif,36.18,5.4,Algeria,DZ,DZA,Sétif,admin
Sidi Bel Abbes,35.1903,-0.64,Algeria,DZ,DZA,Sidi Bel Abbès,admin
Skikda,36.8804,6.9,Algeria,DZ,DZA,Skikda,admin
Souk Ahras,36.2904,7.95,Algeria,DZ,DZA,Souk Ahras,admin
Tamanrasset,22.785,5.5228,Algeria,DZ,DZA,Tamanrasset,admin
I-n-Salah,27.2166,2.4666,Algeria,DZ,DZA,Tamanrasset,
I-n-Amguel,23.6939,5.1647,Algeria,DZ,DZA,Tamanrasset,
Tebessa,35.4104,8.12,Algeria,DZ,DZA,Tébessa,admin
Tiaret,35.3804,1.32,Algeria,DZ,DZA,Tiaret,admin
Tindouf,27.6742,-8.1478,Algeria,DZ,DZA,Tindouf,admin
Tipasa,36.5897,2.4475,Algeria,DZ,DZA,Tipaza,admin
Tissemsilt,35.6072,1.8108,Algeria,DZ,DZA,Tissemsilt,admin
Tizi Ouzou,36.8,4.0333,Algeria,DZ,DZA,Tizi Ouzou,admin
Tlemcen,34.8904,-1.32,Algeria,DZ,DZA,Tlemcen,admin
Pago Pago,-14.274,-170.7046,American Samoa,AS,ASM,,primary
Andorra la Vella,42.5,1.5165,Andorra,AD,AND,Andorra la Vella,primary
Canillo,42.567,1.5981,Andorra,AD,AND,Canillo,admin
Encamp,42.5361,1.5828,Andorra,AD,AND,Encamp,admin
Escaldes-Engordany,42.5085,1.5385,Andorra,AD,AND,Escaldes-Engordany,admin
La Massana,42.5434,1.5148,Andorra,AD,AND,La Massana,admin
Ordino,42.5563,1.5327,Andorra,AD,AND,Ordino,admin
Sant Julia de Loria,42.4664,1.4933,Andorra,AD,AND,Sant Julià de Lòria,admin
Caxito,-8.5795,13.66,Angola,AO,AGO,Bengo,admin
Ambriz,-7.855,13.125,Angola,AO,AGO,Bengo,
Lobito,-12.37,13.5412,Angola,AO,AGO,Benguela,
Benguela,-12.5783,13.4072,Angola,AO,AGO,Benguela,admin
Cubal,-13.0396,14.24,Angola,AO,AGO,Benguela,
Cuito,-12.38,16.94,Angola,AO,AGO,Bié,admin
Camacupa,-12.0196,17.47,Angola,AO,AGO,Bié,
Calenga,-11.3196,16.2,Angola,AO,AGO,Bié,
Cabinda,-5.5596,12.19,Angola,AO,AGO,Cabinda,admin
Ondjiva,-17.0696,15.73,Angola,AO,AGO,Cunene,admin
Chitado,-17.3196,13.92,Angola,AO,AGO,Cunene,
Xangongo,-16.74,14.97,Angola,AO,AGO,Cunene,
Huambo,-12.75,15.76,Angola,AO,AGO,Huambo,admin
Lubango,-14.91,13.49,Angola,AO,AGO,Huíla,
Lubango,-14.9167,13.5,Angola,AO,AGO,Huíla,admin
Chibemba,-15.7496,14.08,Angola,AO,AGO,Huíla,
Chibia,-15.1896,13.69,Angola,AO,AGO,Huíla,
Quipungo,-14.8295,14.55,Angola,AO,AGO,Huíla,
Menongue,-14.6666,17.7,Angola,AO,AGO,Kuando Kubango,admin
Mavinga,-15.7895,20.36,Angola,AO,AGO,Kuando Kubango,
Luiana,-17.3695,23,Angola,AO,AGO,Kuando Kubango,
Cuito Cuanavale,-15.1596,19.17,Angola,AO,AGO,Kuando Kubango,
Mucusso,-18.0195,21.43,Angola,AO,AGO,Kuando Kubango,
N'dalatando,-9.2995,14.91,Angola,AO,AGO,Kwanza Norte,admin
Camabatela,-8.1896,15.37,Angola,AO,AGO,Kwanza Norte,
Dondo,-9.69,14.43,Angola,AO,AGO,Kwanza Norte,
Sumbe,-11.21,13.85,Angola,AO,AGO,Kwanza Sul,admin
Uacu Cungo,-11.3595,15.12,Angola,AO,AGO,Kwanza Sul,
Quibala,-10.7296,14.98,Angola,AO,AGO,Kwanza Sul,
Calulo,-9.9996,14.9,Angola,AO,AGO,Kwanza Sul,
Luanda,-8.8383,13.2344,Angola,AO,AGO,Luanda,primary
Dundo,-7.38,20.83,Angola,AO,AGO,Lunda Norte,admin
Capenda Camulemba,-9.4196,18.43,Angola,AO,AGO,Lunda Norte,
Lucapa,-8.4196,20.74,Angola,AO,AGO,Lunda Norte,
Saurimo,-9.6596,20.39,Angola,AO,AGO,Lunda Sul,admin
Muconda,-10.5996,21.32,Angola,AO,AGO,Lunda Sul,
Cacolo,-10.1496,19.26,Angola,AO,AGO,Lunda Sul,
Malanje,-9.54,16.34,Angola,AO,AGO,Malanje,admin
Luena,-11.79,19.9,Angola,AO,AGO,Moxico,admin
Luau,-10.7095,22.23,Angola,AO,AGO,Moxico,
Cangamba,-13.6996,19.86,Angola,AO,AGO,Moxico,
Cazombo,-11.8896,22.9,Angola,AO,AGO,Moxico,
Namibe,-15.19,12.16,Angola,AO,AGO,Namibe,admin
Tombua,-15.8,11.86,Angola,AO,AGO,Namibe,
Uige,-7.62,15.05,Angola,AO,AGO,Uíge,admin
Songo,-7.3496,14.85,Angola,AO,AGO,Uíge,
Mbanza Congo,-6.2696,14.24,Angola,AO,AGO,Zaire,admin
Soio,-6.1296,12.37,Angola,AO,AGO,Zaire,
Nzeto,-7.2296,12.86,Angola,AO,AGO,Zaire,
Saint John's,17.118,-61.85,Antigua And Barbuda,AG,ATG,Saint John,primary
La Plata,-34.9096,-57.96,Argentina,AR,ARG,Buenos Aires,admin
Mar del Plata,-38,-57.58,Argentina,AR,ARG,Buenos Aires,minor
Bahia Blanca,-38.74,-62.265,Argentina,AR,ARG,Buenos Aires,minor
San Nicolas de los Arroyos,-33.33,-60.24,Argentina,AR,ARG,Buenos Aires,minor
Tandil,-37.32,-59.15,Argentina,AR,ARG,Buenos Aires,minor
Zarate,-34.0896,-59.04,Argentina,AR,ARG,Buenos Aires,minor
Pergamino,-33.8996,-60.57,Argentina,AR,ARG,Buenos Aires,minor
Olavarria,-36.9,-60.33,Argentina,AR,ARG,Buenos Aires,minor
Junin,-34.5846,-60.9589,Argentina,AR,ARG,Buenos Aires,minor
Lujan,-34.5796,-59.11,Argentina,AR,ARG,Buenos Aires,minor
Campana,-34.16,-58.96,Argentina,AR,ARG,Buenos Aires,minor
Necochea,-38.56,-58.75,Argentina,AR,ARG,Buenos Aires,minor
Punta Alta,-38.88,-62.08,Argentina,AR,ARG,Buenos Aires,minor
Chivilcoy,-34.9,-60.04,Argentina,AR,ARG,Buenos Aires,minor
Azul,-36.7796,-59.87,Argentina,AR,ARG,Buenos Aires,minor
Mercedes,-34.66,-59.44,Argentina,AR,ARG,Buenos Aires,minor
Tres Arroyos,-38.37,-60.2699,Argentina,AR,ARG,Buenos Aires,minor
Nueve de Julio,-35.446,-60.89,Argentina,AR,ARG,Buenos Aires,minor
Chacabuco,-34.65,-60.49,Argentina,AR,ARG,Buenos Aires,minor
Coronel Suarez,-37.4666,-61.9166,Argentina,AR,ARG,Buenos Aires,minor
Dolores,-36.33,-57.69,Argentina,AR,ARG,Buenos Aires,minor
Lincoln,-34.88,-61.5399,Argentina,AR,ARG,Buenos Aires,minor
Veinticinco de Mayo,-35.43,-60.18,Argentina,AR,ARG,Buenos Aires,minor
Chascomus,-35.5662,-58.0166,Argentina,AR,ARG,Buenos Aires,minor
Balcarce,-37.8333,-58.25,Argentina,AR,ARG,Buenos Aires,minor
Lobos,-35.1849,-59.0947,Argentina,AR,ARG,Buenos Aires,minor
Mar de Ajo,-36.7162,-56.6766,Argentina,AR,ARG,Buenos Aires,
Benito Juarez,-37.6655,-59.8,Argentina,AR,ARG,Buenos Aires,minor
Carhue,-37.1829,-62.7333,Argentina,AR,ARG,Buenos Aires,minor
Pedro Luro,-39.4833,-62.6833,Argentina,AR,ARG,Buenos Aires,
Darregueira,-37.6996,-63.1666,Argentina,AR,ARG,Buenos Aires,
Villalonga,-39.8829,-62.5833,Argentina,AR,ARG,Buenos Aires,
Buenos Aires,-34.6025,-58.3975,Argentina,AR,ARG,"Buenos Aires, Ciudad Autónoma de",primary
Esquel,-42.9,-71.3166,Argentina,AR,ARG,"Buenos Aires, Ciudad Autónoma de",minor
El Maiten,-42.05,-71.1666,Argentina,AR,ARG,"Buenos Aires, Ciudad Autónoma de",
San Fernando del Valle de Catamarca,-28.47,-65.78,Argentina,AR,ARG,Catamarca,admin
Belen,-27.6496,-67.0333,Argentina,AR,ARG,Catamarca,minor
Chumbicha,-28.8666,-66.2333,Argentina,AR,ARG,Catamarca,minor
Tinogasta,-28.0666,-67.5666,Argentina,AR,ARG,Catamarca,minor
Resistencia,-27.46,-58.99,Argentina,AR,ARG,Chaco,admin
Presidencia Roque Saenz Pena,-26.79,-60.45,Argentina,AR,ARG,Chaco,minor
Villa Angela,-27.5833,-60.7167,Argentina,AR,ARG,Chaco,minor
Charata,-27.2163,-61.2,Argentina,AR,ARG,Chaco,minor
Castelli,-25.9495,-60.6166,Argentina,AR,ARG,Chaco,minor
Pampa del Infierno,-26.5166,-61.1666,Argentina,AR,ARG,Chaco,minor
Comodoro Rivadavia,-45.87,-67.5,Argentina,AR,ARG,Chubut,minor
Rawson,-43.3,-65.1,Argentina,AR,ARG,Chubut,admin
Trelew,-43.25,-65.33,Argentina,AR,ARG,Chubut,
Puerto Madryn,-42.77,-65.04,Argentina,AR,ARG,Chubut,minor
Sarmiento,-45.6,-69.0833,Argentina,AR,ARG,Chubut,minor
Alto Rio Senguer,-45.0333,-70.8333,Argentina,AR,ARG,Chubut,minor
Gastre,-42.283,-69.2333,Argentina,AR,ARG,Chubut,minor
Telsen,-42.3996,-66.95,Argentina,AR,ARG,Chubut,minor
Rio Mayo,-45.6834,-70.2666,Argentina,AR,ARG,Chubut,
Cordoba,-31.4,-64.1823,Argentina,AR,ARG,Córdoba,admin
Rio Cuarto,-33.13,-64.35,Argentina,AR,ARG,Córdoba,minor
Villa Maria,-32.41,-63.26,Argentina,AR,ARG,Córdoba,minor
Villa Carlos Paz,-31.42,-64.5,Argentina,AR,ARG,Córdoba,
San Francisco,-31.43,-62.09,Argentina,AR,ARG,Córdoba,minor
Rio Tercero,-32.1796,-64.12,Argentina,AR,ARG,Córdoba,
Alta Gracia,-31.66,-64.43,Argentina,AR,ARG,Córdoba,minor
Bell Ville,-32.6,-62.68,Argentina,AR,ARG,Córdoba,minor
Villa Rumipal,-32.1833,-64.4833,Argentina,AR,ARG,Córdoba,
Corrientes,-27.49,-58.81,Argentina,AR,ARG,Corrientes,admin
Goya,-29.14,-59.27,Argentina,AR,ARG,Corrientes,minor
San Lorenzo,-28.12,-58.77,Argentina,AR,ARG,Corrientes,
Mercedes,-29.1796,-58.08,Argentina,AR,ARG,Corrientes,minor
Parana,-31.7333,-60.5333,Argentina,AR,ARG,Entre Ríos,admin
Concordia,-31.3896,-58.03,Argentina,AR,ARG,Entre Ríos,minor
Gualeguaychu,-33.02,-58.52,Argentina,AR,ARG,Entre Ríos,minor
Concepcion del Uruguay,-32.48,-58.24,Argentina,AR,ARG,Entre Ríos,minor
Gualeguay,-33.15,-59.34,Argentina,AR,ARG,Entre Ríos,minor
Victoria,-32.61,-60.18,Argentina,AR,ARG,Entre Ríos,minor
Formosa,-26.1728,-58.1828,Argentina,AR,ARG,Formosa,admin
Ingeniero Guillermo N. Juarez,-23.9,-61.85,Argentina,AR,ARG,Formosa,minor
Comandante Fontana,-25.3333,-59.6833,Argentina,AR,ARG,Formosa,minor
Las Lomitas,-24.6996,-60.6,Argentina,AR,ARG,Formosa,
San Salvador de Jujuy,-24.1833,-65.3,Argentina,AR,ARG,Jujuy,admin
San Pedro,-24.2196,-64.87,Argentina,AR,ARG,Jujuy,minor
Libertador General San Martin,-23.8195,-64.79,Argentina,AR,ARG,Jujuy,minor
Humahuaca,-23.2,-65.3499,Argentina,AR,ARG,Jujuy,minor
Rinconada,-22.4329,-66.1666,Argentina,AR,ARG,Jujuy,minor
Abra Pampa,-22.7167,-65.7,Argentina,AR,ARG,Jujuy,minor
Susques,-23.4167,-66.4833,Argentina,AR,ARG,Jujuy,minor
Santa Rosa,-36.62,-64.3,Argentina,AR,ARG,La Pampa,admin
General Pico,-35.6596,-63.77,Argentina,AR,ARG,La Pampa,minor
Veinticinco de Mayo,-37.8,-67.6833,Argentina,AR,ARG,La Pampa,minor
Rio Colorado,-38.9666,-64.0833,Argentina,AR,ARG,La Pampa,
Victorica,-36.2163,-65.45,Argentina,AR,ARG,La Pampa,minor
La Rioja,-29.41,-66.85,Argentina,AR,ARG,La Rioja,admin
Chilecito,-29.1655,-67.5,Argentina,AR,ARG,La Rioja,minor
Chamical,-30.3496,-66.3167,Argentina,AR,ARG,La Rioja,minor
Chepes,-31.35,-66.6,Argentina,AR,ARG,La Rioja,minor
Mendoza,-32.8833,-68.8166,Argentina,AR,ARG,Mendoza,admin
San Martin,-33.07,-68.49,Argentina,AR,ARG,Mendoza,minor
San Rafael,-34.6,-68.3333,Argentina,AR,ARG,Mendoza,minor
Las Heras,-32.825,-68.8017,Argentina,AR,ARG,Mendoza,minor
Tunuyan,-33.5662,-69.0167,Argentina,AR,ARG,Mendoza,minor
Malargue,-35.4661,-69.5833,Argentina,AR,ARG,Mendoza,minor
La Paz,-33.4661,-67.55,Argentina,AR,ARG,Mendoza,minor
Uspallata,-32.5931,-69.346,Argentina,AR,ARG,Mendoza,
Posadas,-27.3578,-55.8851,Argentina,AR,ARG,Misiones,admin
Eldorado,-26.2,-54.6,Argentina,AR,ARG,Misiones,minor
Neuquen,-38.95,-68.06,Argentina,AR,ARG,Neuquén,admin
Cutral-Co,-38.94,-69.24,Argentina,AR,ARG,Neuquén,
Zapala,-38.9,-70.0667,Argentina,AR,ARG,Neuquén,minor
Chos Malal,-37.383,-70.2666,Argentina,AR,ARG,Neuquén,minor
Las Lajas,-38.5163,-70.3666,Argentina,AR,ARG,Neuquén,minor
Viedma,-40.8,-63,Argentina,AR,ARG,Río Negro,admin
San Carlos de Bariloche,-41.15,-71.3,Argentina,AR,ARG,Río Negro,minor
General Roca,-39.02,-67.61,Argentina,AR,ARG,Río Negro,
Choele Choel,-39.2666,-65.6833,Argentina,AR,ARG,Río Negro,minor
San Antonio Oeste,-40.7329,-64.9333,Argentina,AR,ARG,Río Negro,minor
General Conesa,-40.1,-64.4333,Argentina,AR,ARG,Río Negro,minor
Sierra Colorada,-40.5829,-67.8,Argentina,AR,ARG,Río Negro,minor
Ingeniero Jacobacci,-41.3,-69.5833,Argentina,AR,ARG,Río Negro,
Comallo,-41.0333,-70.2666,Argentina,AR,ARG,Río Negro,
Salta,-24.7834,-65.4166,Argentina,AR,ARG,Salta,admin
San Ramon de la Nueva Oran,-23.14,-64.32,Argentina,AR,ARG,Salta,minor
Tartagal,-22.55,-63.81,Argentina,AR,ARG,Salta,minor
General Martin Miguel de Guemes,-24.6666,-65.05,Argentina,AR,ARG,Salta,minor
Joaquin V. Gonzalez,-25.0833,-64.1834,Argentina,AR,ARG,Salta,minor
Cafayate,-26.0829,-65.9666,Argentina,AR,ARG,Salta,minor
Cerrillos,-24.8996,-65.4833,Argentina,AR,ARG,Salta,minor
San Antonio de los Cobres,-24.1829,-66.35,Argentina,AR,ARG,Salta,minor
Los Blancos,-23.5996,-62.6,Argentina,AR,ARG,Salta,
San Juan,-31.55,-68.52,Argentina,AR,ARG,San Juan,admin
Rodeo,-30.2156,-69.14,Argentina,AR,ARG,San Juan,minor
San Luis,-33.3,-66.35,Argentina,AR,ARG,San Luis,admin
Villa Mercedes,-33.6896,-65.47,Argentina,AR,ARG,San Luis,minor
Rio Gallegos,-51.6333,-69.2166,Argentina,AR,ARG,Santa Cruz,admin
El Calafate,-50.3333,-72.3,Argentina,AR,ARG,Santa Cruz,minor
Perito Moreno,-46.6,-70.9334,Argentina,AR,ARG,Santa Cruz,minor
Puerto Deseado,-47.75,-65.9,Argentina,AR,ARG,Santa Cruz,minor
Gobernador Gregores,-48.7666,-70.25,Argentina,AR,ARG,Santa Cruz,minor
San Julian,-49.3,-67.7167,Argentina,AR,ARG,Santa Cruz,minor
Veintiocho de Noviembre,-51.65,-72.3,Argentina,AR,ARG,Santa Cruz,
Comandante Luis Piedra Buena,-49.9745,-68.9035,Argentina,AR,ARG,Santa Cruz,
Rosario,-32.9511,-60.6663,Argentina,AR,ARG,Santa Fe,minor
Santa Fe,-31.6239,-60.69,Argentina,AR,ARG,Santa Fe,admin
Reconquista,-29.1395,-59.65,Argentina,AR,ARG,Santa Fe,minor
Rafaela,-31.25,-61.5,Argentina,AR,ARG,Santa Fe,minor
Venado Tuerto,-33.7496,-61.97,Argentina,AR,ARG,Santa Fe,
Villa Constitucion,-33.23,-60.35,Argentina,AR,ARG,Santa Fe,minor
Sunchales,-30.9329,-61.5666,Argentina,AR,ARG,Santa Fe,
Vera,-29.4662,-60.2166,Argentina,AR,ARG,Santa Fe,minor
San Justo,-30.7829,-60.5833,Argentina,AR,ARG,Santa Fe,minor
Santiago del Estero,-27.7833,-64.2667,Argentina,AR,ARG,Santiago del Estero,admin
Anatuya,-28.4661,-62.8333,Argentina,AR,ARG,Santiago del Estero,minor
Frias,-28.6496,-65.15,Argentina,AR,ARG,Santiago del Estero,minor
Monte Quemado,-25.7996,-62.8666,Argentina,AR,ARG,Santiago del Estero,minor
Ushuaia,-54.79,-68.31,Argentina,AR,ARG,"Tierra del Fuego, Antártida e Islas del Atlántico Sur",admin
Rio Grande,-53.7914,-67.699,Argentina,AR,ARG,"Tierra del Fuego, Antártida e Islas del Atlántico Sur",minor
San Miguel de Tucuman,-26.816,-65.2166,Argentina,AR,ARG,Tucumán,admin
Trancas,-26.2167,-65.2833,Argentina,AR,ARG,Tucumán,minor
Ashtarak,40.3017,44.3592,Armenia,AM,ARM,Aragatsotn,admin
Artashat,39.9539,44.5506,Armenia,AM,ARM,Ararat,admin
Armavir,40.1545,44.0382,Armenia,AM,ARM,Armavir,admin
Gavarr,40.3589,45.1267,Armenia,AM,ARM,Geghark’unik’,admin
Hrazdan,40.4941,44.7602,Armenia,AM,ARM,Kotayk’,admin
Vanadzor,40.8128,44.4883,Armenia,AM,ARM,Lorri,admin
Gyumri,40.7894,43.8475,Armenia,AM,ARM,Shirak,admin
Kapan,39.2075,46.4058,Armenia,AM,ARM,Syunik’,admin
Ijevan,40.8788,45.1485,Armenia,AM,ARM,Tavush,admin
Ijevan,40.8756,45.1492,Armenia,AM,ARM,Tavush,
Yeghegnadzor,39.7611,45.3333,Armenia,AM,ARM,Vayots’ Dzor,admin
Yerevan,40.1812,44.5136,Armenia,AM,ARM,Yerevan,primary
Oranjestad,12.5304,-70.029,Aruba,AW,ABW,,primary
Canberra,-35.283,149.129,Australia,AU,AUS,Australian Capital Territory,primary
Sydney,-33.92,151.1852,Australia,AU,AUS,New South Wales,admin
Newcastle,-32.8453,151.815,Australia,AU,AUS,New South Wales,
Wollongong,-34.4154,150.89,Australia,AU,AUS,New South Wales,
Albury,-36.06,146.92,Australia,AU,AUS,New South Wales,
Nowra,-34.8828,150.6,Australia,AU,AUS,New South Wales,
Coffs Harbour,-30.3071,153.1123,Australia,AU,AUS,New South Wales,
Wagga Wagga,-35.1222,147.34,Australia,AU,AUS,New South Wales,
Port Macquarie,-31.445,152.9187,Australia,AU,AUS,New South Wales,
Taree,-31.8976,152.4618,Australia,AU,AUS,New South Wales,
Orange,-33.28,149.1,Australia,AU,AUS,New South Wales,
Tamworth,-31.1026,150.9171,Australia,AU,AUS,New South Wales,
Tweed Heads,-28.1826,153.5466,Australia,AU,AUS,New South Wales,
Queanbeyan,-35.3546,149.2113,Australia,AU,AUS,New South Wales,
Dubbo,-32.26,148.5973,Australia,AU,AUS,New South Wales,
Lismore,-28.8167,153.2931,Australia,AU,AUS,New South Wales,
Armidale,-30.5123,151.6675,Australia,AU,AUS,New South Wales,
Katoomba,-33.7069,150.32,Australia,AU,AUS,New South Wales,
Goulburn,-34.7496,149.7102,Australia,AU,AUS,New South Wales,
Maitland,-32.721,151.555,Australia,AU,AUS,New South Wales,
Tuncurry,-32.1931,152.5266,Australia,AU,AUS,New South Wales,
Broken Hill,-31.95,141.4331,Australia,AU,AUS,New South Wales,
Griffith,-34.29,146.04,Australia,AU,AUS,New South Wales,
Ballina,-28.8614,153.568,Australia,AU,AUS,New South Wales,
Richmond,-33.5995,150.74,Australia,AU,AUS,New South Wales,
Singleton,-32.5695,151.16,Australia,AU,AUS,New South Wales,
Kempsey,-31.0874,152.822,Australia,AU,AUS,New South Wales,
Muswellbrook,-32.2696,150.89,Australia,AU,AUS,New South Wales,
Parkes,-33.1296,148.17,Australia,AU,AUS,New South Wales,
Lithgow,-33.4961,150.1528,Australia,AU,AUS,New South Wales,
Batemans Bay,-35.6896,150.2073,Australia,AU,AUS,New South Wales,
Kiama,-34.7096,150.84,Australia,AU,AUS,New South Wales,
Grafton,-29.712,152.9377,Australia,AU,AUS,New South Wales,
Ulladulla,-35.3495,150.47,Australia,AU,AUS,New South Wales,
Inverell,-29.7668,151.1126,Australia,AU,AUS,New South Wales,
Moree,-29.4699,149.8301,Australia,AU,AUS,New South Wales,
Deniliquin,-35.5296,144.95,Australia,AU,AUS,New South Wales,
Young,-34.3096,148.29,Australia,AU,AUS,New South Wales,
Leeton,-34.5449,146.3973,Australia,AU,AUS,New South Wales,
Gunnedah,-30.987,150.2623,Australia,AU,AUS,New South Wales,
Narrabri,-30.3319,149.7874,Australia,AU,AUS,New South Wales,
Cowra,-33.8296,148.68,Australia,AU,AUS,New South Wales,
Byron Bay,-28.6565,153.6129,Australia,AU,AUS,New South Wales,
Tumut,-35.3096,148.22,Australia,AU,AUS,New South Wales,
Cooma,-36.2396,149.12,Australia,AU,AUS,New South Wales,
Merimbula,-36.8996,149.9,Australia,AU,AUS,New South Wales,
Bathurst,-33.4196,149.57,Australia,AU,AUS,New South Wales,
Mudgee,-32.5896,149.5801,Australia,AU,AUS,New South Wales,
Forbes,-33.3896,148.02,Australia,AU,AUS,New South Wales,
Scone,-32.0796,150.8501,Australia,AU,AUS,New South Wales,
Central Coast,-33.42,151.3,Australia,AU,AUS,New South Wales,
Bourke,-30.1,145.9333,Australia,AU,AUS,New South Wales,
Yamba,-29.423,153.3533,Australia,AU,AUS,New South Wales,
Wilcannia,-31.5662,143.3833,Australia,AU,AUS,New South Wales,
Ivanhoe,-32.8996,144.3,Australia,AU,AUS,New South Wales,
Darwin,-12.4254,130.85,Australia,AU,AUS,Northern Territory,admin
Alice Springs,-23.701,133.88,Australia,AU,AUS,Northern Territory,
Katherine,-14.4666,132.2666,Australia,AU,AUS,Northern Territory,
McMinns Lagoon,-12.5329,131.05,Australia,AU,AUS,Northern Territory,
Yulara,-25.2405,130.9889,Australia,AU,AUS,Northern Territory,
Pine Creek,-13.8162,131.8167,Australia,AU,AUS,Northern Territory,
Adelaide River,-13.2495,131.1,Australia,AU,AUS,Northern Territory,
Brisbane,-27.455,153.0351,Australia,AU,AUS,Queensland,admin
Gold Coast,-28.0815,153.4482,Australia,AU,AUS,Queensland,
Cairns,-16.8878,145.7633,Australia,AU,AUS,Queensland,
Townsville,-19.25,146.77,Australia,AU,AUS,Queensland,
Caloundra,-26.8,153.1333,Australia,AU,AUS,Queensland,
Toowoomba,-27.5645,151.9555,Australia,AU,AUS,Queensland,
Mackay,-21.1439,149.15,Australia,AU,AUS,Queensland,
Rockhampton,-23.3639,150.52,Australia,AU,AUS,Queensland,
Bundaberg,-24.8791,152.3509,Australia,AU,AUS,Queensland,
Mount Isa,-20.7239,139.49,Australia,AU,AUS,Queensland,
Caboolture,-27.083,152.95,Australia,AU,AUS,Queensland,
Gladstone,-23.8533,151.2467,Australia,AU,AUS,Queensland,
Hervey Bay,-25.2887,152.8409,Australia,AU,AUS,Queensland,
Maryborough,-25.5491,152.7209,Australia,AU,AUS,Queensland,
Bongaree,-27.0787,153.1509,Australia,AU,AUS,Queensland,
Warwick,-28.2292,152.0203,Australia,AU,AUS,Queensland,
Gympie,-26.1886,152.6709,Australia,AU,AUS,Queensland,
Bowen,-20.0013,148.2087,Australia,AU,AUS,Queensland,
Yeppoon,-23.1329,150.7567,Australia,AU,AUS,Queensland,
Innisfail,-17.5313,146.0387,Australia,AU,AUS,Queensland,
Moranbah,-22.0016,148.038,Australia,AU,AUS,Queensland,
Dalby,-27.1939,151.2657,Australia,AU,AUS,Queensland,
Charters Towers,-20.0809,146.2587,Australia,AU,AUS,Queensland,
Emerald,-23.5122,148.1673,Australia,AU,AUS,Queensland,
Ayr,-19.5702,147.3995,Australia,AU,AUS,Queensland,
Kingaroy,-26.539,151.8406,Australia,AU,AUS,Queensland,
Atherton,-17.2703,145.4694,Australia,AU,AUS,Queensland,
Biloela,-24.3936,150.4961,Australia,AU,AUS,Queensland,
Ingham,-18.6496,146.1666,Australia,AU,AUS,Queensland,
Roma,-26.5594,148.7907,Australia,AU,AUS,Queensland,
Goondiwindi,-28.5548,150.3253,Australia,AU,AUS,Queensland,
Proserpine,-20.4162,148.5835,Australia,AU,AUS,Queensland,
Port Douglas,-16.4846,145.4587,Australia,AU,AUS,Queensland,
Longreach,-23.4496,144.25,Australia,AU,AUS,Queensland,
Weipa,-12.6666,141.8666,Australia,AU,AUS,Queensland,
Charleville,-26.4,146.25,Australia,AU,AUS,Queensland,
Cloncurry,-20.7,140.5,Australia,AU,AUS,Queensland,
Barcaldine,-23.5662,145.2834,Australia,AU,AUS,Queensland,
Quilpie,-26.6166,144.25,Australia,AU,AUS,Queensland,
Hughenden,-20.85,144.2,Australia,AU,AUS,Queensland,
Winton,-22.3996,143.0333,Australia,AU,AUS,Queensland,
Georgetown,-18.3,143.5333,Australia,AU,AUS,Queensland,
Boulia,-22.8996,139.9,Australia,AU,AUS,Queensland,
Eidsvold,-25.3662,151.1333,Australia,AU,AUS,Queensland,
Richmond,-20.7163,143.1333,Australia,AU,AUS,Queensland,
Birdsville,-25.8996,139.3666,Australia,AU,AUS,Queensland,
Theodore,-24.9495,150.0833,Australia,AU,AUS,Queensland,
Thargomindah,-28,143.8167,Australia,AU,AUS,Queensland,
Burketown,-17.7161,139.5666,Australia,AU,AUS,Queensland,
Camooweal,-19.9167,138.1167,Australia,AU,AUS,Queensland,
Karumba,-17.4833,140.8334,Australia,AU,AUS,Queensland,
Windorah,-25.4332,142.6502,Australia,AU,AUS,Queensland,
Bedourie,-24.3496,139.4666,Australia,AU,AUS,Queensland,
Adelaide,-34.935,138.6,Australia,AU,AUS,South Australia,admin
Mount Gambier,-37.8313,140.765,Australia,AU,AUS,South Australia,
Whyalla,-33.025,137.5614,Australia,AU,AUS,South Australia,
Murray Bridge,-35.1296,139.26,Australia,AU,AUS,South Australia,
Gawler,-34.6074,138.7264,Australia,AU,AUS,South Australia,
Port Augusta,-32.49,137.77,Australia,AU,AUS,South Australia,
Port Lincoln,-34.7332,135.8666,Australia,AU,AUS,South Australia,
Port Pirie,-33.1911,137.99,Australia,AU,AUS,South Australia,
Victor Harbor,-35.5596,138.6173,Australia,AU,AUS,South Australia,
Berri,-34.2829,140.6,Australia,AU,AUS,South Australia,
Clare,-33.8329,138.6,Australia,AU,AUS,South Australia,
Wallaroo,-33.9329,137.6333,Australia,AU,AUS,South Australia,
Bordertown,-36.3162,140.7666,Australia,AU,AUS,South Australia,
Tumby Bay,-34.3829,136.0833,Australia,AU,AUS,South Australia,
Penola,-37.383,140.8167,Australia,AU,AUS,South Australia,
Streaky Bay,-32.8119,134.2149,Australia,AU,AUS,South Australia,
Kingston South East,-36.8328,139.8501,Australia,AU,AUS,South Australia,
Peterborough,-32.9662,138.8333,Australia,AU,AUS,South Australia,
Ceduna,-32.0991,133.6623,Australia,AU,AUS,South Australia,
Meningie,-35.6995,139.3333,Australia,AU,AUS,South Australia,
Kimba,-33.1496,136.4334,Australia,AU,AUS,South Australia,
Cowell,-33.6829,136.9166,Australia,AU,AUS,South Australia,
Andamooka,-30.431,137.1656,Australia,AU,AUS,South Australia,
Woomera,-31.1496,136.8,Australia,AU,AUS,South Australia,
Kingoonya,-30.8996,135.3,Australia,AU,AUS,South Australia,
Hobart,-42.85,147.295,Australia,AU,AUS,Tasmania,admin
Launceston,-41.4498,147.1302,Australia,AU,AUS,Tasmania,
Burnie,-41.0666,145.9167,Australia,AU,AUS,Tasmania,
Devonport,-41.1927,146.3311,Australia,AU,AUS,Tasmania,
Kingston,-42.9911,147.3084,Australia,AU,AUS,Tasmania,
Smithton,-40.8329,145.1167,Australia,AU,AUS,Tasmania,
Scottsdale,-41.1495,147.5167,Australia,AU,AUS,Tasmania,
Queenstown,-42.0829,145.55,Australia,AU,AUS,Tasmania,
Oatlands,-42.2996,147.3666,Australia,AU,AUS,Tasmania,
Bicheno,-41.8784,148.2886,Australia,AU,AUS,Tasmania,
Melbourne,-37.82,144.975,Australia,AU,AUS,Victoria,admin
Cranbourne,-38.0996,145.2834,Australia,AU,AUS,Victoria,
Geelong,-38.1675,144.3956,Australia,AU,AUS,Victoria,
Ballarat,-37.5596,143.84,Australia,AU,AUS,Victoria,
Bendigo,-36.76,144.28,Australia,AU,AUS,Victoria,
Mildura,-34.185,142.1514,Australia,AU,AUS,Victoria,
Shepparton,-36.3746,145.3914,Australia,AU,AUS,Victoria,
Melton,-37.6895,144.57,Australia,AU,AUS,Victoria,
Warrnambool,-38.38,142.47,Australia,AU,AUS,Victoria,
Sunbury,-37.5696,144.71,Australia,AU,AUS,Victoria,
Sale,-38.1096,147.06,Australia,AU,AUS,Victoria,
Echuca,-36.1296,144.75,Australia,AU,AUS,Victoria,
Traralgon,-38.1996,146.53,Australia,AU,AUS,Victoria,
Wangaratta,-36.36,146.3,Australia,AU,AUS,Victoria,
Horsham,-36.7096,142.19,Australia,AU,AUS,Victoria,
Portland,-38.34,141.59,Australia,AU,AUS,Victoria,
Bairnsdale,-37.8296,147.61,Australia,AU,AUS,Victoria,
Swan Hill,-35.3396,143.54,Australia,AU,AUS,Victoria,
Colac,-38.3395,143.58,Australia,AU,AUS,Victoria,
Hamilton,-37.7312,142.0234,Australia,AU,AUS,Victoria,
Maryborough,-37.0496,143.73,Australia,AU,AUS,Victoria,
Stawell,-37.0596,142.76,Australia,AU,AUS,Victoria,
Ararat,-37.2795,142.91,Australia,AU,AUS,Victoria,
Wonthaggi,-38.6095,145.59,Australia,AU,AUS,Victoria,
Cobram,-35.9196,145.65,Australia,AU,AUS,Victoria,
Seymour,-37.0342,145.1273,Australia,AU,AUS,Victoria,
Ouyen,-35.0662,142.3167,Australia,AU,AUS,Victoria,
Perth,-31.955,115.84,Australia,AU,AUS,Western Australia,admin
Mandurah,-32.5235,115.7471,Australia,AU,AUS,Western Australia,
Kalgoorlie,-30.7354,121.46,Australia,AU,AUS,Western Australia,
Geraldton,-28.7666,114.6,Australia,AU,AUS,Western Australia,
Bunbury,-33.3443,115.6502,Australia,AU,AUS,Western Australia,
Albany,-35.0169,117.8916,Australia,AU,AUS,Western Australia,
Kwinana,-32.2394,115.7702,Australia,AU,AUS,Western Australia,
Roebourne,-20.7829,117.1333,Australia,AU,AUS,Western Australia,
Karratha,-20.7304,116.87,Australia,AU,AUS,Western Australia,
Port Hedland,-20.3104,118.606,Australia,AU,AUS,Western Australia,
Broome,-17.9618,122.2308,Australia,AU,AUS,Western Australia,
Busselton,-33.6564,115.3487,Australia,AU,AUS,Western Australia,
Esperance,-33.8573,121.8889,Australia,AU,AUS,Western Australia,
Carnarvon,-24.8998,113.6501,Australia,AU,AUS,Western Australia,
Northam,-31.6566,116.6534,Australia,AU,AUS,Western Australia,
Kununurra,-15.7666,128.7333,Australia,AU,AUS,Western Australia,
Manjimup,-34.2333,116.15,Australia,AU,AUS,Western Australia,
Narrogin,-32.9329,117.1666,Australia,AU,AUS,Western Australia,
Katanning,-33.6996,117.5501,Australia,AU,AUS,Western Australia,
Tom Price,-22.6935,117.7931,Australia,AU,AUS,Western Australia,
Mount Barker,-34.6328,117.6666,Australia,AU,AUS,Western Australia,
Wagin,-33.2996,117.35,Australia,AU,AUS,Western Australia,
Kalbarri,-27.6662,114.1667,Australia,AU,AUS,Western Australia,
Ravensthorpe,-33.5829,120.0333,Australia,AU,AUS,Western Australia,
Wyndham,-15.374,128.3601,Australia,AU,AUS,Western Australia,
Meekatharra,-26.6,118.4833,Australia,AU,AUS,Western Australia,
Morawa,-29.2163,116,Australia,AU,AUS,Western Australia,
Three Springs,-29.5333,115.75,Australia,AU,AUS,Western Australia,
Newman,-23.3666,119.7333,Australia,AU,AUS,Western Australia,
Merredin,-31.4828,118.2667,Australia,AU,AUS,Western Australia,
Gingin,-31.3496,115.9,Australia,AU,AUS,Western Australia,
Port Denison,-29.2828,114.9166,Australia,AU,AUS,Western Australia,
Halls Creek,-18.2667,127.7667,Australia,AU,AUS,Western Australia,
Exmouth,-21.9311,114.1233,Australia,AU,AUS,Western Australia,
Norseman,-32.2,121.7666,Australia,AU,AUS,Western Australia,
Pannawonica,-21.6366,116.325,Australia,AU,AUS,Western Australia,
Onslow,-21.6576,115.0963,Australia,AU,AUS,Western Australia,
Mount Magnet,-28.0662,117.8167,Australia,AU,AUS,Western Australia,
Laverton,-28.627,122.404,Australia,AU,AUS,Western Australia,
Leonora,-28.8815,121.328,Australia,AU,AUS,Western Australia,
Southern Cross,-31.2161,119.3167,Australia,AU,AUS,Western Australia,
Eisenstadt,47.8333,16.5333,Austria,AT,AUT,Burgenland,admin
Klagenfurt,46.6203,14.31,Austria,AT,AUT,Kärnten,admin
Sankt Polten,48.2,15.6333,Austria,AT,AUT,Niederösterreich,admin
Wiener Neustadt,47.816,16.25,Austria,AT,AUT,Niederösterreich,minor
Linz,48.3192,14.2888,Austria,AT,AUT,Oberösterreich,admin
Salzburg,47.8105,13.04,Austria,AT,AUT,Salzburg,admin
Graz,47.0778,15.41,Austria,AT,AUT,Steiermark,admin
Innsbruck,47.2804,11.41,Austria,AT,AUT,Tirol,admin
Bregenz,47.5167,9.7667,Austria,AT,AUT,Vorarlberg,admin
Vienna,48.2,16.3666,Austria,AT,AUT,Wien,primary
Xirdalan,40.4481,49.755,Azerbaijan,AZ,AZE,Abşeron,admin
Agcabadi,40.0501,47.4594,Azerbaijan,AZ,AZE,Ağcabədi,admin
Agdam,39.991,46.9274,Azerbaijan,AZ,AZE,Ağdam,admin
Agdas,40.647,47.4738,Azerbaijan,AZ,AZE,Ağdaş,admin
Agstafa,41.1148,45.4468,Azerbaijan,AZ,AZE,Ağstafa,admin
Agsu,40.5692,48.3965,Azerbaijan,AZ,AZE,Ağsu,admin
Astara,38.456,48.875,Azerbaijan,AZ,AZE,Astara,admin
Baku,40.3953,49.8622,Azerbaijan,AZ,AZE,Bakı,primary
Balakan,41.7263,46.4048,Azerbaijan,AZ,AZE,Balakən,admin
Beylaqan,39.7756,47.6186,Azerbaijan,AZ,AZE,Beyləqan,admin
Barda,40.3758,47.1262,Azerbaijan,AZ,AZE,Bərdə,admin
Bilasuvar,39.4583,48.545,Azerbaijan,AZ,AZE,Biləsuvar,admin
Cabrayil,39.3992,47.0283,Azerbaijan,AZ,AZE,Cəbrayıl,admin
Calilabad,39.2096,48.4919,Azerbaijan,AZ,AZE,Cəlilabad,admin
Daskasan,40.5239,46.0819,Azerbaijan,AZ,AZE,Daşkəsən,admin
Fuzuli,39.6009,47.1453,Azerbaijan,AZ,AZE,Füzuli,admin
Gadabay,40.5656,45.8161,Azerbaijan,AZ,AZE,Gədəbəy,admin
Ganca,40.685,46.35,Azerbaijan,AZ,AZE,Gəncə,admin
Goranboy,40.6103,46.7897,Azerbaijan,AZ,AZE,Goranboy,admin
Goycay,40.6534,47.7406,Azerbaijan,AZ,AZE,Göyçay,admin
Goygol,40.5858,46.3189,Azerbaijan,AZ,AZE,Göygöl,admin
Haciqabul,40.0387,48.9429,Azerbaijan,AZ,AZE,Hacıqabul,admin
Imisli,39.8724,48.0649,Azerbaijan,AZ,AZE,İmişli,admin
Ismayilli,40.7848,48.1514,Azerbaijan,AZ,AZE,İsmayıllı,admin
Kalbacar,40.1098,46.0445,Azerbaijan,AZ,AZE,Kəlbəcər,admin
Qivraq,39.3994,45.1151,Azerbaijan,AZ,AZE,Kəngərli,admin
Kurdamir,40.3426,48.1565,Azerbaijan,AZ,AZE,Kürdəmir,admin
Lacin,39.6434,46.5462,Azerbaijan,AZ,AZE,Laçın,admin
Lerik,38.7739,48.415,Azerbaijan,AZ,AZE,Lerik,admin
Lankaran,38.754,48.8511,Azerbaijan,AZ,AZE,Lənkəran,admin
Masalli,39.0278,48.6703,Azerbaijan,AZ,AZE,Masallı,admin
Mingacevir,40.7639,47.0595,Azerbaijan,AZ,AZE,Mingəçevir,admin
Naftalan,40.5082,46.8203,Azerbaijan,AZ,AZE,Naftalan,admin
Naxcivan,39.2092,45.4122,Azerbaijan,AZ,AZE,Naxçıvan,admin
Neftcala,39.3768,49.247,Azerbaijan,AZ,AZE,Neftçala,admin
Oguz,41.0708,47.4583,Azerbaijan,AZ,AZE,Oğuz,admin
Ordubad,38.9096,46.0227,Azerbaijan,AZ,AZE,Ordubad,admin
Qax,41.4183,46.9204,Azerbaijan,AZ,AZE,Qax,admin
Qazax,41.0925,45.3656,Azerbaijan,AZ,AZE,Qazax,admin
Qabala,40.9825,47.8491,Azerbaijan,AZ,AZE,Qəbələ,admin
Qobustan,40.5336,48.9282,Azerbaijan,AZ,AZE,Qobustan,admin
Quba,41.3611,48.5134,Azerbaijan,AZ,AZE,Quba,admin
Qubadli,39.3444,46.5818,Azerbaijan,AZ,AZE,Qubadlı,admin
Qazyan,39.2015,46.415,Azerbaijan,AZ,AZE,Qubadlı,
Qusar,41.4275,48.4302,Azerbaijan,AZ,AZE,Qusar,admin
Saatli,39.9321,48.3689,Azerbaijan,AZ,AZE,Saatlı,admin
Sabirabad,40.0087,48.477,Azerbaijan,AZ,AZE,Sabirabad,admin
Davaci,41.2012,48.9871,Azerbaijan,AZ,AZE,Şabran,admin
Sahbuz,39.4072,45.5739,Azerbaijan,AZ,AZE,Şahbuz,admin
Salyan,39.5962,48.9848,Azerbaijan,AZ,AZE,Salyan,admin
Samux,40.7649,46.4087,Azerbaijan,AZ,AZE,Samux,admin
Heydarabad,39.7229,44.8485,Azerbaijan,AZ,AZE,Sədərək,admin
Saki,41.1923,47.1705,Azerbaijan,AZ,AZE,Şəki,admin
Samkir,40.8297,46.0178,Azerbaijan,AZ,AZE,Şəmkir,admin
Sarur,39.5544,44.9826,Azerbaijan,AZ,AZE,Şərur,admin
Sirvan,39.9323,48.9203,Azerbaijan,AZ,AZE,Şirvan,
Siyazan,41.0781,49.1156,Azerbaijan,AZ,AZE,Siyəzən,admin
Sumqayit,40.58,49.63,Azerbaijan,AZ,AZE,Sumqayıt,admin
Susa,39.7601,46.7499,Azerbaijan,AZ,AZE,Şuşa,admin
Tartar,40.342,46.9316,Azerbaijan,AZ,AZE,Tərtər,admin
Tovuz,40.9922,45.6289,Azerbaijan,AZ,AZE,Tovuz,admin
Agdam,40.9053,45.5564,Azerbaijan,AZ,AZE,Tovuz,
Ucar,40.5121,47.6519,Azerbaijan,AZ,AZE,Ucar,admin
Xacmaz,41.4643,48.8057,Azerbaijan,AZ,AZE,Xaçmaz,admin
Xankandi,39.8156,46.752,Azerbaijan,AZ,AZE,Xankəndi,
Xizi,40.9085,49.0748,Azerbaijan,AZ,AZE,Xızı,admin
Xocali,39.913,46.7903,Azerbaijan,AZ,AZE,Xocalı,admin
Xocavand,39.795,47.1117,Azerbaijan,AZ,AZE,Xocavənd,admin
Yardimli,38.9077,48.2405,Azerbaijan,AZ,AZE,Yardımlı,admin
Yevlax,40.6172,47.15,Azerbaijan,AZ,AZE,Yevlax,admin
Zaqatala,41.6316,46.6448,Azerbaijan,AZ,AZE,Zaqatala,admin
Zangilan,39.0837,46.6599,Azerbaijan,AZ,AZE,Zəngilan,admin
Zardab,40.2184,47.7121,Azerbaijan,AZ,AZE,Zərdab,admin
Qazmalar,40.9814,47.8458,Azerbaijan,AZ,AZE,,
Freeport City,26.5333,-78.7,"Bahamas, The",BS,BHS,City of Freeport,
Nassau,25.0834,-77.35,"Bahamas, The",BS,BHS,,primary
Manama,26.2361,50.5831,Bahrain,BH,BHR,Al ‘Āşimah,primary
Barisal,22.7004,90.375,Bangladesh,BD,BGD,Barisāl,admin
Chittagong,22.33,91.8,Bangladesh,BD,BGD,Chittagong,admin
Comilla,23.4704,91.17,Bangladesh,BD,BGD,Chittagong,
Dhaka,23.7231,90.4086,Bangladesh,BD,BGD,Dhaka,primary
Narayanganj,23.6204,90.5,Bangladesh,BD,BGD,Dhaka,
Tangail,24.25,89.92,Bangladesh,BD,BGD,Dhaka,
Khulna,22.84,89.56,Bangladesh,BD,BGD,Khulna,admin
Jessore,23.1704,89.2,Bangladesh,BD,BGD,Khulna,
Mymensingh,24.7504,90.38,Bangladesh,BD,BGD,Mymensingh,admin
Jamalpur,24.9004,89.95,Bangladesh,BD,BGD,Mymensingh,
Rajshahi,24.375,88.605,Bangladesh,BD,BGD,Rājshāhi,admin
Nawabganj,24.5804,88.35,Bangladesh,BD,BGD,Rājshāhi,
Rangpur,25.75,89.28,Bangladesh,BD,BGD,Rangpur,admin
Saidpur,25.8004,89,Bangladesh,BD,BGD,Rangpur,
Sylhet,24.9036,91.8736,Bangladesh,BD,BGD,Sylhet,admin
Pabna,24.0004,89.25,Bangladesh,BD,BGD,,
Bridgetown,13.102,-59.6165,Barbados,BB,BRB,Saint Michael,primary
Brest,52.1,23.7,Belarus,BY,BLR,Brestskaya Voblasts’,admin
Baranavichy,53.1368,26.0134,Belarus,BY,BLR,Brestskaya Voblasts’,minor
Pinsk,52.1279,26.0941,Belarus,BY,BLR,Brestskaya Voblasts’,minor
Homyel',52.43,31,Belarus,BY,BLR,Homyel’skaya Voblasts’,admin
Mazyr,52.046,29.2722,Belarus,BY,BLR,Homyel’skaya Voblasts’,minor
Hrodna,53.6779,23.8341,Belarus,BY,BLR,Hrodzyenskaya Voblasts’,admin
Lida,53.8885,25.2846,Belarus,BY,BLR,Hrodzyenskaya Voblasts’,
Mahilyow,53.8985,30.3247,Belarus,BY,BLR,Mahilyowskaya Voblasts’,admin
Babruysk,53.1266,29.1928,Belarus,BY,BLR,Mahilyowskaya Voblasts’,minor
Minsk,53.9,27.5666,Belarus,BY,BLR,Minsk,primary
Horad Barysaw,54.226,28.4922,Belarus,BY,BLR,Minskaya Voblasts’,minor
Maladzyechna,54.3188,26.8653,Belarus,BY,BLR,Minskaya Voblasts’,minor
Vitsyebsk,55.1887,30.1853,Belarus,BY,BLR,Vitsyebskaya Voblasts’,admin
Orsha,54.5153,30.4215,Belarus,BY,BLR,Vitsyebskaya Voblasts’,minor
Polatsk,55.4894,28.786,Belarus,BY,BLR,Vitsyebskaya Voblasts’,minor
Brussels,50.8333,4.3333,Belgium,BE,BEL,Brussels-Capital Region,primary
Antwerp,51.2204,4.415,Belgium,BE,BEL,Flanders,minor
Gent,51.03,3.7,Belgium,BE,BEL,Flanders,minor
Bruges,51.2204,3.23,Belgium,BE,BEL,Flanders,minor
Hasselt,50.964,5.484,Belgium,BE,BEL,Flanders,minor
Liege,50.63,5.58,Belgium,BE,BEL,Wallonia,minor
Charleroi,50.4204,4.45,Belgium,BE,BEL,Wallonia,minor
Namur,50.4704,4.87,Belgium,BE,BEL,Wallonia,admin
Mons,50.446,3.939,Belgium,BE,BEL,Wallonia,minor
Arlon,49.6833,5.8167,Belgium,BE,BEL,Wallonia,minor
Belize City,17.4987,-88.1884,Belize,BZ,BLZ,Belize,admin
Belmopan,17.252,-88.7671,Belize,BZ,BLZ,Cayo,primary
San Ignacio,17.156,-89.061,Belize,BZ,BLZ,Cayo,admin
Corozal,18.398,-88.388,Belize,BZ,BLZ,Corozal,admin
Orange Walk,18.0904,-88.56,Belize,BZ,BLZ,Orange Walk,admin
Dangriga,16.97,-88.22,Belize,BZ,BLZ,Stann Creek,admin
Punta Gorda,16.1003,-88.81,Belize,BZ,BLZ,Toledo,admin
Kandi,11.1304,2.94,Benin,BJ,BEN,Alibori,admin
Natitingou,10.3204,1.39,Benin,BJ,BEN,Atacora,admin
Ouidah,6.3604,2.09,Benin,BJ,BEN,Atlantique,admin
Parakou,9.34,2.62,Benin,BJ,BEN,Borgou,admin
Savalou,7.9281,1.9756,Benin,BJ,BEN,Collines,admin
Dogbo,6.8167,1.7833,Benin,BJ,BEN,Couffo,admin
Djougou,9.7004,1.68,Benin,BJ,BEN,Donga,admin
Cotonou,6.4,2.52,Benin,BJ,BEN,Littoral,primary
Lokossa,6.615,1.715,Benin,BJ,BEN,Mono,admin
Porto-Novo,6.4833,2.6166,Benin,BJ,BEN,Ouémé,primary
Sakete,6.7362,2.6587,Benin,BJ,BEN,Plateau,admin
Abomey,7.1904,1.99,Benin,BJ,BEN,Zou,admin
Hamilton,32.2942,-64.7839,Bermuda,BM,BMU,Hamilton,
Jakar,27.5492,90.7525,Bhutan,BT,BTN,Bumthang,admin
Tsimasham,27.0989,89.536,Bhutan,BT,BTN,Chhukha,admin
Daga,27.0753,89.8769,Bhutan,BT,BTN,Dagana,admin
Gasa,27.9067,89.7304,Bhutan,BT,BTN,Gasa,admin
Haa,27.3685,89.2918,Bhutan,BT,BTN,Haa,admin
Lhuentse,27.6679,91.1839,Bhutan,BT,BTN,Lhuentse,admin
Mongar,27.2747,91.2396,Bhutan,BT,BTN,Mongar,admin
Paro,27.3833,89.5167,Bhutan,BT,BTN,Paro,admin
Pemagatshel,27.038,91.4031,Bhutan,BT,BTN,Pemagatshel,admin
Punakha,27.6333,89.8333,Bhutan,BT,BTN,Punakha,admin
Samdrup Jongkhar,26.8007,91.5052,Bhutan,BT,BTN,Samdrup Jongkhar,admin
Samtse,26.899,89.0995,Bhutan,BT,BTN,Samtse,admin
Sarpang,26.8639,90.2674,Bhutan,BT,BTN,Sarpang,admin
Thimphu,27.473,89.639,Bhutan,BT,BTN,Thimphu,primary
Trashi Yangtse,27.6116,91.498,Bhutan,BT,BTN,Trashi Yangtse,admin
Trashigang,27.3331,91.5542,Bhutan,BT,BTN,Trashigang,admin
Trongsa,27.5026,90.5072,Bhutan,BT,BTN,Trongsa,admin
Tsirang,27.0219,90.1229,Bhutan,BT,BTN,Tsirang,admin
Wangdue Phodrang,27.4333,89.9167,Bhutan,BT,BTN,Wangdue Phodrang,admin
Zhemgang,27.2169,90.6579,Bhutan,BT,BTN,Zhemgang,admin
Sucre,-19.041,-65.2595,Bolivia,BO,BOL,Chuquisaca,primary
Camargo,-20.6396,-65.21,Bolivia,BO,BOL,Chuquisaca,
Padilla,-19.2996,-64.31,Bolivia,BO,BOL,Chuquisaca,
Tarabuco,-19.18,-64.9199,Bolivia,BO,BOL,Chuquisaca,
Cochabamba,-17.41,-66.17,Bolivia,BO,BOL,Cochabamba,admin
Quillacollo,-17.4,-66.28,Bolivia,BO,BOL,Cochabamba,
Punata,-17.55,-65.84,Bolivia,BO,BOL,Cochabamba,
Cliza,-17.59,-65.93,Bolivia,BO,BOL,Cochabamba,
Aiquile,-18.1895,-65.18,Bolivia,BO,BOL,Cochabamba,
Puerto Villarroel,-16.87,-64.78,Bolivia,BO,BOL,Cochabamba,
Santa Ana de Yacuma,-13.76,-65.58,Bolivia,BO,BOL,El Beni,
Trinidad,-14.8334,-64.9,Bolivia,BO,BOL,El Beni,admin
Riberalta,-10.983,-66.1,Bolivia,BO,BOL,El Beni,
Guayaramerin,-10.83,-65.41,Bolivia,BO,BOL,El Beni,
San Borja,-14.8196,-66.85,Bolivia,BO,BOL,El Beni,
Rurrenabaque,-14.46,-67.56,Bolivia,BO,BOL,El Beni,
Reyes,-14.3096,-67.37,Bolivia,BO,BOL,El Beni,
San Ramon,-13.2896,-64.71,Bolivia,BO,BOL,El Beni,
Magdalena,-13.2601,-64.0528,Bolivia,BO,BOL,El Beni,
Baures,-13.58,-63.5801,Bolivia,BO,BOL,El Beni,
Piso Firme,-13.683,-61.8666,Bolivia,BO,BOL,El Beni,
La Paz,-16.498,-68.15,Bolivia,BO,BOL,La Paz,primary
Viacha,-16.65,-68.3,Bolivia,BO,BOL,La Paz,
Achacachi,-16.0833,-68.6666,Bolivia,BO,BOL,La Paz,
Apolo,-14.7196,-68.42,Bolivia,BO,BOL,La Paz,
Quime,-16.98,-67.22,Bolivia,BO,BOL,La Paz,
Coroico,-16.1896,-67.72,Bolivia,BO,BOL,La Paz,
Sorata,-15.79,-68.6601,Bolivia,BO,BOL,La Paz,
Corocoro,-17.1696,-68.45,Bolivia,BO,BOL,La Paz,
Puerto Acosta,-15.4996,-69.1667,Bolivia,BO,BOL,La Paz,
Sicasica,-17.33,-67.73,Bolivia,BO,BOL,La Paz,
Charana,-17.5996,-69.4666,Bolivia,BO,BOL,La Paz,
Puerto Heath,-12.4996,-68.6666,Bolivia,BO,BOL,La Paz,
Oruro,-17.98,-67.13,Bolivia,BO,BOL,Oruro,admin
Challapata,-18.8996,-66.78,Bolivia,BO,BOL,Oruro,
Sabaya,-19.0163,-68.3833,Bolivia,BO,BOL,Oruro,
Cobija,-11.0333,-68.7333,Bolivia,BO,BOL,Pando,admin
Potosi,-19.5696,-65.75,Bolivia,BO,BOL,Potosí,admin
Villazon,-22.0796,-65.6,Bolivia,BO,BOL,Potosí,
Tupiza,-21.4396,-65.72,Bolivia,BO,BOL,Potosí,
Llallagua,-18.42,-66.64,Bolivia,BO,BOL,Potosí,
Uyuni,-20.46,-66.83,Bolivia,BO,BOL,Potosí,
Betanzos,-19.56,-65.45,Bolivia,BO,BOL,Potosí,
Uncia,-18.47,-66.57,Bolivia,BO,BOL,Potosí,
Llica,-19.8496,-68.25,Bolivia,BO,BOL,Potosí,
Villa Martin Colchak,-20.7666,-67.7833,Bolivia,BO,BOL,Potosí,
Santa Cruz,-17.7539,-63.226,Bolivia,BO,BOL,Santa Cruz,
Santa Cruz de la Sierra,-17.8,-63.1667,Bolivia,BO,BOL,Santa Cruz,admin
Montero,-17.3496,-63.26,Bolivia,BO,BOL,Santa Cruz,
Camiri,-20.05,-63.52,Bolivia,BO,BOL,Santa Cruz,
San Ignacio de Velasco,-16.3696,-60.96,Bolivia,BO,BOL,Santa Cruz,
Puerto Suarez,-18.9496,-57.85,Bolivia,BO,BOL,Santa Cruz,
Ascension,-15.6996,-63.08,Bolivia,BO,BOL,Santa Cruz,
Portachuelo,-17.36,-63.4,Bolivia,BO,BOL,Santa Cruz,
Puerto Quijarro,-17.7796,-57.77,Bolivia,BO,BOL,Santa Cruz,
Robore,-18.3295,-59.76,Bolivia,BO,BOL,Santa Cruz,
San Jose de Chiquitos,-17.85,-60.78,Bolivia,BO,BOL,Santa Cruz,
Vallegrande,-18.4896,-64.11,Bolivia,BO,BOL,Santa Cruz,
San Carlos,-17.4,-63.73,Bolivia,BO,BOL,Santa Cruz,
San Matias,-16.36,-58.42,Bolivia,BO,BOL,Santa Cruz,
San Javier,-16.2896,-62.5,Bolivia,BO,BOL,Santa Cruz,
Charagua,-19.7996,-63.22,Bolivia,BO,BOL,Santa Cruz,
Samaipata,-18.18,-63.77,Bolivia,BO,BOL,Santa Cruz,
San Rafael,-16.7795,-60.68,Bolivia,BO,BOL,Santa Cruz,
Cuevo,-20.45,-63.53,Bolivia,BO,BOL,Santa Cruz,
Tarija,-21.5167,-64.75,Bolivia,BO,BOL,Tarija,admin
Bermejo,-22.7296,-64.35,Bolivia,BO,BOL,Tarija,
Villamontes,-21.2496,-63.5,Bolivia,BO,BOL,Tarija,
San Lorenzo,-21.4799,-64.77,Bolivia,BO,BOL,Tarija,
Entre Rios,-21.53,-64.19,Bolivia,BO,BOL,Tarija,
Sarajevo,43.85,18.383,Bosnia And Herzegovina,BA,BIH,"Bosnia and Herzegovina, Federation of",primary
Zenica,44.22,17.92,Bosnia And Herzegovina,BA,BIH,"Bosnia and Herzegovina, Federation of",minor
Mostar,43.3505,17.82,Bosnia And Herzegovina,BA,BIH,"Bosnia and Herzegovina, Federation of",minor
Tuzla,44.5505,18.68,Bosnia And Herzegovina,BA,BIH,"Bosnia and Herzegovina, Federation of",minor
Brcko,44.87,18.8101,Bosnia And Herzegovina,BA,BIH,Brcko District,admin
Banja Luka,44.7804,17.18,Bosnia And Herzegovina,BA,BIH,"Srpska, Republika",admin
Prijedor,44.9804,16.7,Bosnia And Herzegovina,BA,BIH,"Srpska, Republika",minor
Serowe,-22.39,26.71,Botswana,BW,BWA,Central,admin
Mahalapye,-23.1,26.82,Botswana,BW,BWA,Central,
Palapye,-22.5596,27.13,Botswana,BW,BWA,Central,
Mopipi,-21.1795,24.88,Botswana,BW,BWA,Central,
Kasane,-17.8096,25.15,Botswana,BW,BWA,Chobe,admin
Francistown,-21.17,27.5,Botswana,BW,BWA,Francistown,admin
Gaborone,-24.6463,25.9119,Botswana,BW,BWA,Gaborone,primary
Ghanzi,-21.6996,21.64,Botswana,BW,BWA,Ghanzi,admin
Jwaneng,-24.6017,24.7281,Botswana,BW,BWA,Jwaneng,admin
Tshabong,-26.0095,22.4,Botswana,BW,BWA,Kgalagadi,admin
Mochudi,-24.377,26.152,Botswana,BW,BWA,Kgatleng,admin
Molepolole,-24.4,25.51,Botswana,BW,BWA,Kweneng,admin
Lobatse,-25.2196,25.68,Botswana,BW,BWA,Lobatse,admin
Masunga,-20.6245,27.4488,Botswana,BW,BWA,North East,admin
Maun,-19.9896,23.42,Botswana,BW,BWA,North West,admin
Selibe Phikwe,-21.9758,27.8347,Botswana,BW,BWA,Selibe Phikwe,admin
Ramotswa,-24.8716,25.8699,Botswana,BW,BWA,South East,admin
Kanye,-24.9696,25.34,Botswana,BW,BWA,Southern,admin
Sowa Town,-20.5636,26.2244,Botswana,BW,BWA,Sowa Town,admin
Nata,-20.2095,26.19,Botswana,BW,BWA,,
Lehututu,-23.9696,21.87,Botswana,BW,BWA,,
Nokaneng,-19.6696,22.27,Botswana,BW,BWA,,
Lokwabe,-24.1696,21.83,Botswana,BW,BWA,,
Tsau,-20.1596,22.46,Botswana,BW,BWA,,
Muhembo,-18.2996,21.8,Botswana,BW,BWA,,
Rio Branco,-9.9666,-67.8,Brazil,BR,BRA,Acre,admin
Sena Madureira,-9.07,-68.67,Brazil,BR,BRA,Acre,
Cruzeiro do Sul,-7.63,-72.67,Brazil,BR,BRA,Acre,
Maceio,-9.62,-35.73,Brazil,BR,BRA,Alagoas,admin
Arapiraca,-9.75,-36.67,Brazil,BR,BRA,Alagoas,
Rio Largo,-9.48,-35.84,Brazil,BR,BRA,Alagoas,
Penedo,-10.2696,-36.58,Brazil,BR,BRA,Alagoas,
Palmeira dos Indios,-9.4166,-36.6166,Brazil,BR,BRA,Alagoas,
Presidente Dutra,-5.25,-44.52,Brazil,BR,BRA,Alagoas,
Vila Velha,3.2167,-51.2167,Brazil,BR,BRA,Amapá,
Macapa,0.033,-51.05,Brazil,BR,BRA,Amapá,admin
Santana,-0.0396,-51.18,Brazil,BR,BRA,Amapá,
Amapa,2.05,-50.8,Brazil,BR,BRA,Amapá,
Manaus,-3.1,-60,Brazil,BR,BRA,Amazonas,admin
Natal,-6.9838,-60.2699,Brazil,BR,BRA,Amazonas,
Crato,-7.4639,-63.04,Brazil,BR,BRA,Amazonas,
Parintins,-2.61,-56.74,Brazil,BR,BRA,Amazonas,
Manacapuru,-3.2896,-60.62,Brazil,BR,BRA,Amazonas,
Coari,-4.08,-63.13,Brazil,BR,BRA,Amazonas,
Itacoatiara,-3.14,-58.44,Brazil,BR,BRA,Amazonas,
Maues,-3.3896,-57.72,Brazil,BR,BRA,Amazonas,
Eirunepe,-6.66,-69.8738,Brazil,BR,BRA,Amazonas,
Sao Gabriel da Cachoeira,-0.1332,-67.0833,Brazil,BR,BRA,Amazonas,
Novo Airao,-2.6208,-60.9438,Brazil,BR,BRA,Amazonas,
Tefe,-3.36,-64.7,Brazil,BR,BRA,Amazonas,
Manicore,-5.8122,-61.2975,Brazil,BR,BRA,Amazonas,
Fonte Boa,-2.5138,-66.0916,Brazil,BR,BRA,Amazonas,
Barcelos,-0.975,-62.9239,Brazil,BR,BRA,Amazonas,
Tonantins,-2.8727,-67.8019,Brazil,BR,BRA,Amazonas,
Salvador,-12.97,-38.48,Brazil,BR,BRA,Bahia,admin
Feira de Santana,-12.25,-38.97,Brazil,BR,BRA,Bahia,
Vitoria da Conquista,-14.85,-40.84,Brazil,BR,BRA,Bahia,
Ilheus,-14.78,-39.05,Brazil,BR,BRA,Bahia,
Itabuna,-14.7896,-39.28,Brazil,BR,BRA,Bahia,
Barreiras,-12.14,-45,Brazil,BR,BRA,Bahia,
Jequie,-13.85,-40.08,Brazil,BR,BRA,Bahia,
Alagoinhas,-12.14,-38.43,Brazil,BR,BRA,Bahia,
Porto Seguro,-16.4296,-39.08,Brazil,BR,BRA,Bahia,
Juazeiro,-9.42,-40.5,Brazil,BR,BRA,Bahia,
Paulo Afonso,-9.3307,-38.2657,Brazil,BR,BRA,Bahia,
Irece,-11.3,-41.87,Brazil,BR,BRA,Bahia,
Valenca,-13.3596,-39.08,Brazil,BR,BRA,Bahia,
Itapetinga,-15.25,-40.25,Brazil,BR,BRA,Bahia,
Guanambi,-14.2296,-42.79,Brazil,BR,BRA,Bahia,
Serrinha,-11.6496,-39.01,Brazil,BR,BRA,Bahia,
Senhor do Bonfim,-10.4496,-40.19,Brazil,BR,BRA,Bahia,
Itamaraju,-17.0396,-39.5299,Brazil,BR,BRA,Bahia,
Itaberaba,-12.5196,-40.3,Brazil,BR,BRA,Bahia,
Brumado,-14.21,-41.67,Brazil,BR,BRA,Bahia,
Jaguaquara,-13.53,-39.97,Brazil,BR,BRA,Bahia,
Bom Jesus da Lapa,-13.2495,-43.44,Brazil,BR,BRA,Bahia,
Remanso,-9.5996,-42.11,Brazil,BR,BRA,Bahia,
Xique-Xique,-10.82,-42.73,Brazil,BR,BRA,Bahia,
Tucano,-10.9696,-38.79,Brazil,BR,BRA,Bahia,
Ubaitaba,-14.3,-39.33,Brazil,BR,BRA,Bahia,
Canavieiras,-15.64,-38.96,Brazil,BR,BRA,Bahia,
Itambe,-15.2396,-40.63,Brazil,BR,BRA,Bahia,
Santa Maria da Vitoria,-13.39,-44.21,Brazil,BR,BRA,Bahia,
Nova Vicosa,-17.88,-39.37,Brazil,BR,BRA,Bahia,
Santa Cruz Cabralia,-16.28,-39.03,Brazil,BR,BRA,Bahia,
Fortaleza,-3.75,-38.58,Brazil,BR,BRA,Ceará,admin
Crato,-7.2296,-39.42,Brazil,BR,BRA,Ceará,
Juazeiro do Norte,-7.21,-39.32,Brazil,BR,BRA,Ceará,
Sobral,-3.69,-40.35,Brazil,BR,BRA,Ceará,
Iguatu,-6.36,-39.3,Brazil,BR,BRA,Ceará,
Itapipoca,-3.4995,-39.58,Brazil,BR,BRA,Ceará,
Crateus,-5.1656,-40.666,Brazil,BR,BRA,Ceará,
Quixada,-4.97,-39.02,Brazil,BR,BRA,Ceará,
Camocim,-2.9,-40.85,Brazil,BR,BRA,Ceará,
Aracati,-4.56,-37.77,Brazil,BR,BRA,Ceará,
Caninde,-4.35,-39.31,Brazil,BR,BRA,Ceará,
Russas,-4.94,-37.98,Brazil,BR,BRA,Ceará,
Ipu,-4.3196,-40.7201,Brazil,BR,BRA,Ceará,
Granja,-3.1195,-40.84,Brazil,BR,BRA,Ceará,
Paracuru,-3.3995,-39.04,Brazil,BR,BRA,Ceará,
Taua,-5.9995,-40.31,Brazil,BR,BRA,Ceará,
Acarau,-2.8896,-40.12,Brazil,BR,BRA,Ceará,
Ico,-6.4,-38.85,Brazil,BR,BRA,Ceará,
Baturite,-4.3296,-38.88,Brazil,BR,BRA,Ceará,
Brasilia,-15.7833,-47.9161,Brazil,BR,BRA,Distrito Federal,primary
Vitoria,-20.324,-40.366,Brazil,BR,BRA,Espírito Santo,admin
Vila Velha,-20.3676,-40.318,Brazil,BR,BRA,Espírito Santo,
Cachoeiro de Itapemirim,-20.85,-41.13,Brazil,BR,BRA,Espírito Santo,
Linhares,-19.39,-40.05,Brazil,BR,BRA,Espírito Santo,
Sao Mateus,-18.7296,-39.86,Brazil,BR,BRA,Espírito Santo,
Goiania,-16.72,-49.3,Brazil,BR,BRA,Goiás,admin
Anapolis,-16.3196,-48.96,Brazil,BR,BRA,Goiás,
Trindade,-16.65,-49.5,Brazil,BR,BRA,Goiás,
Formosa,-15.5395,-47.34,Brazil,BR,BRA,Goiás,
Itumbiara,-18.3996,-49.21,Brazil,BR,BRA,Goiás,
Jatai,-17.8796,-51.75,Brazil,BR,BRA,Goiás,
Catalao,-18.18,-47.95,Brazil,BR,BRA,Goiás,
Rio Verde,-17.8196,-50.93,Brazil,BR,BRA,Goiás,
Goianesia,-15.3096,-49.13,Brazil,BR,BRA,Goiás,
Inhumas,-16.36,-49.5,Brazil,BR,BRA,Goiás,
Mineiros,-17.5695,-52.56,Brazil,BR,BRA,Goiás,
Cristalina,-16.77,-47.61,Brazil,BR,BRA,Goiás,
Morrinhos,-17.73,-49.11,Brazil,BR,BRA,Goiás,
Ipora,-16.45,-51.13,Brazil,BR,BRA,Goiás,
Niquelandia,-14.4696,-48.47,Brazil,BR,BRA,Goiás,
Pires do Rio,-17.2995,-48.28,Brazil,BR,BRA,Goiás,
Itaberai,-16.02,-49.81,Brazil,BR,BRA,Goiás,
Ceres,-15.3033,-49.6052,Brazil,BR,BRA,Goiás,
Sao Luis,-2.516,-44.266,Brazil,BR,BRA,Maranhão,admin
Imperatriz,-5.52,-47.49,Brazil,BR,BRA,Maranhão,
Timon,-5.115,-42.845,Brazil,BR,BRA,Maranhão,
Caxias,-4.833,-43.35,Brazil,BR,BRA,Maranhão,
Codo,-4.4796,-43.88,Brazil,BR,BRA,Maranhão,
Bacabal,-4.23,-44.8,Brazil,BR,BRA,Maranhão,
Balsas,-7.52,-46.05,Brazil,BR,BRA,Maranhão,
Santa Ines,-3.66,-45.39,Brazil,BR,BRA,Maranhão,
Sao Jose de Ribamar,-2.55,-44.07,Brazil,BR,BRA,Maranhão,
Barra do Corda,-5.5096,-45.26,Brazil,BR,BRA,Maranhão,
Chapadinha,-3.7395,-43.36,Brazil,BR,BRA,Maranhão,
Pinheiro,-2.5196,-45.09,Brazil,BR,BRA,Maranhão,
Itapecuru Mirim,-3.4,-44.36,Brazil,BR,BRA,Maranhão,
Coroata,-4.1296,-44.15,Brazil,BR,BRA,Maranhão,
Colinas,-6.0395,-44.24,Brazil,BR,BRA,Maranhão,
Pedreiras,-4.5696,-44.67,Brazil,BR,BRA,Maranhão,
Rosario,-2.94,-44.26,Brazil,BR,BRA,Maranhão,
Grajau,-5.81,-46.15,Brazil,BR,BRA,Maranhão,
Viana,-3.2096,-45,Brazil,BR,BRA,Maranhão,
Cuiaba,-15.5696,-56.085,Brazil,BR,BRA,Mato Grosso,admin
Varzea Grande,-15.65,-56.14,Brazil,BR,BRA,Mato Grosso,
Rondonopolis,-16.4695,-54.64,Brazil,BR,BRA,Mato Grosso,
Caceres,-16.05,-57.51,Brazil,BR,BRA,Mato Grosso,
Barra do Garcas,-15.8796,-52.26,Brazil,BR,BRA,Mato Grosso,
Barra do Bugres,-15.0696,-57.19,Brazil,BR,BRA,Mato Grosso,
Sinop,-11.85,-55.46,Brazil,BR,BRA,Mato Grosso,
Alta Floresta,-9.9,-55.91,Brazil,BR,BRA,Mato Grosso,
Pontes e Lacerda,-15.2196,-59.35,Brazil,BR,BRA,Mato Grosso,
Colider,-10.8173,-55.4506,Brazil,BR,BRA,Mato Grosso,
Aripuana,-9.17,-60.64,Brazil,BR,BRA,Mato Grosso,
Vila Bela da Santissima Trindade,-15,-59.95,Brazil,BR,BRA,Mato Grosso,
Campo Grande,-20.45,-54.6166,Brazil,BR,BRA,Mato Grosso do Sul,admin
Dourados,-22.23,-54.81,Brazil,BR,BRA,Mato Grosso do Sul,
Corumba,-19.016,-57.65,Brazil,BR,BRA,Mato Grosso do Sul,
Tres Lagoas,-20.79,-51.72,Brazil,BR,BRA,Mato Grosso do Sul,
Paranaiba,-19.6796,-51.2,Brazil,BR,BRA,Mato Grosso do Sul,
Ponta Pora,-22.53,-55.73,Brazil,BR,BRA,Mato Grosso do Sul,
Aquidauana,-20.4696,-55.79,Brazil,BR,BRA,Mato Grosso do Sul,
Jardim,-21.4799,-56.15,Brazil,BR,BRA,Mato Grosso do Sul,
Maracaju,-21.61,-55.18,Brazil,BR,BRA,Mato Grosso do Sul,
Belo Horizonte,-19.915,-43.915,Brazil,BR,BRA,Minas Gerais,admin
Uberlandia,-18.9,-48.28,Brazil,BR,BRA,Minas Gerais,
Juiz de Fora,-21.77,-43.375,Brazil,BR,BRA,Minas Gerais,
Ipatinga,-19.4796,-42.52,Brazil,BR,BRA,Minas Gerais,
Montes Claros,-16.72,-43.86,Brazil,BR,BRA,Minas Gerais,
Uberaba,-19.78,-47.95,Brazil,BR,BRA,Minas Gerais,
Governador Valadares,-18.87,-41.97,Brazil,BR,BRA,Minas Gerais,
Sete Lagoas,-19.4496,-44.25,Brazil,BR,BRA,Minas Gerais,
Divinopolis,-20.1495,-44.9,Brazil,BR,BRA,Minas Gerais,
Pocos de Caldas,-21.78,-46.57,Brazil,BR,BRA,Minas Gerais,
Barbacena,-21.22,-43.77,Brazil,BR,BRA,Minas Gerais,
Pouso Alegre,-22.22,-45.94,Brazil,BR,BRA,Minas Gerais,
Conselheiro Lafaiete,-20.67,-43.79,Brazil,BR,BRA,Minas Gerais,
Teofilo Otoni,-17.87,-41.5,Brazil,BR,BRA,Minas Gerais,
Passos,-20.71,-46.61,Brazil,BR,BRA,Minas Gerais,
Uba,-21.1196,-42.95,Brazil,BR,BRA,Minas Gerais,
Araguari,-18.64,-48.2,Brazil,BR,BRA,Minas Gerais,
Muriae,-21.13,-42.39,Brazil,BR,BRA,Minas Gerais,
Nova Lima,-19.98,-43.85,Brazil,BR,BRA,Minas Gerais,
Ituiutaba,-18.97,-49.46,Brazil,BR,BRA,Minas Gerais,
Araxa,-19.5796,-46.95,Brazil,BR,BRA,Minas Gerais,
Lavras,-21.2496,-45.01,Brazil,BR,BRA,Minas Gerais,
Sao Joao del Rei,-21.13,-44.25,Brazil,BR,BRA,Minas Gerais,
Itauna,-20.06,-44.57,Brazil,BR,BRA,Minas Gerais,
Paracatu,-17.1996,-46.87,Brazil,BR,BRA,Minas Gerais,
Curvelo,-18.7596,-44.43,Brazil,BR,BRA,Minas Gerais,
Pirapora,-17.33,-44.93,Brazil,BR,BRA,Minas Gerais,
Caratinga,-19.79,-42.14,Brazil,BR,BRA,Minas Gerais,
Janauba,-15.7996,-43.31,Brazil,BR,BRA,Minas Gerais,
Formiga,-20.46,-45.43,Brazil,BR,BRA,Minas Gerais,
Ponte Nova,-20.4096,-42.9,Brazil,BR,BRA,Minas Gerais,
Guaxupe,-21.29,-46.71,Brazil,BR,BRA,Minas Gerais,
Campo Belo,-20.8896,-45.28,Brazil,BR,BRA,Minas Gerais,
Leopoldina,-21.53,-42.64,Brazil,BR,BRA,Minas Gerais,
Frutal,-20.03,-48.94,Brazil,BR,BRA,Minas Gerais,
Nanuque,-17.84,-40.35,Brazil,BR,BRA,Minas Gerais,
Diamantina,-18.24,-43.61,Brazil,BR,BRA,Minas Gerais,
Januaria,-15.48,-44.37,Brazil,BR,BRA,Minas Gerais,
Bocaiuva,-17.1096,-43.81,Brazil,BR,BRA,Minas Gerais,
Iturama,-19.73,-50.2,Brazil,BR,BRA,Minas Gerais,
Almenara,-16.17,-40.7,Brazil,BR,BRA,Minas Gerais,
Guanhaes,-18.78,-42.95,Brazil,BR,BRA,Minas Gerais,
Aracuai,-16.8596,-42.0699,Brazil,BR,BRA,Minas Gerais,
Belem,-1.45,-48.48,Brazil,BR,BRA,Pará,admin
Santarem,-2.4333,-54.7,Brazil,BR,BRA,Pará,
Maraba,-5.35,-49.116,Brazil,BR,BRA,Pará,
Castanhal,-1.2896,-47.93,Brazil,BR,BRA,Pará,
Abaetetuba,-1.7245,-48.8849,Brazil,BR,BRA,Pará,
Tucurui,-3.68,-49.72,Brazil,BR,BRA,Pará,
Altamira,-3.1996,-52.21,Brazil,BR,BRA,Pará,
Braganca,-1.05,-46.77,Brazil,BR,BRA,Pará,
Capanema,-1.19,-47.18,Brazil,BR,BRA,Pará,
Breves,-1.68,-50.49,Brazil,BR,BRA,Pará,
Cameta,-2.2396,-49.51,Brazil,BR,BRA,Pará,
Oriximina,-1.7596,-55.87,Brazil,BR,BRA,Pará,
Capitao Poco,-1.7496,-47.09,Brazil,BR,BRA,Pará,
Obidos,-1.91,-55.52,Brazil,BR,BRA,Pará,
Conceicao do Araguaia,-8.25,-49.29,Brazil,BR,BRA,Pará,
Alenquer,-1.9396,-54.79,Brazil,BR,BRA,Pará,
Portel,-1.95,-50.82,Brazil,BR,BRA,Pará,
Itupiranga,-5.12,-49.3,Brazil,BR,BRA,Pará,
Viseu,-1.1965,-46.14,Brazil,BR,BRA,Pará,
Xinguara,-7.1006,-49.948,Brazil,BR,BRA,Pará,
Itaituba,-4.2586,-55.925,Brazil,BR,BRA,Pará,
Paragominas,-2.9596,-47.49,Brazil,BR,BRA,Pará,
Salinopolis,-0.6095,-47.34,Brazil,BR,BRA,Pará,
Jacareacanga,-6.2666,-57.65,Brazil,BR,BRA,Pará,
Joao Pessoa,-7.1011,-34.8761,Brazil,BR,BRA,Paraíba,admin
Campina Grande,-7.23,-35.88,Brazil,BR,BRA,Paraíba,
Patos,-7.0196,-37.29,Brazil,BR,BRA,Paraíba,
Curitiba,-25.42,-49.32,Brazil,BR,BRA,Paraná,admin
Sao Jose dos Pinhais,-25.57,-49.18,Brazil,BR,BRA,Paraná,
Londrina,-23.3,-51.18,Brazil,BR,BRA,Paraná,
Foz do Iguacu,-25.5235,-54.53,Brazil,BR,BRA,Paraná,
Maringa,-23.4095,-51.93,Brazil,BR,BRA,Paraná,
Ponta Grossa,-25.09,-50.16,Brazil,BR,BRA,Paraná,
Cascavel,-24.9596,-53.46,Brazil,BR,BRA,Paraná,
Guarapuava,-25.38,-51.48,Brazil,BR,BRA,Paraná,
Paranagua,-25.5279,-48.5345,Brazil,BR,BRA,Paraná,
Apucarana,-23.55,-51.47,Brazil,BR,BRA,Paraná,
Arapongas,-23.41,-51.43,Brazil,BR,BRA,Paraná,
Telemaco Borba,-24.33,-50.62,Brazil,BR,BRA,Paraná,
Castro,-24.79,-50.01,Brazil,BR,BRA,Paraná,
Jacarezinho,-23.1599,-49.98,Brazil,BR,BRA,Paraná,
Lapa,-25.76,-49.73,Brazil,BR,BRA,Paraná,
Campo Mourao,-24.0496,-52.42,Brazil,BR,BRA,Paraná,
Rio Negro,-26.1,-49.79,Brazil,BR,BRA,Paraná,
Irati,-25.47,-50.66,Brazil,BR,BRA,Paraná,
Palmas,-26.48,-52,Brazil,BR,BRA,Paraná,
Guaira,-24.09,-54.27,Brazil,BR,BRA,Paraná,
Recife,-8.0756,-34.9156,Brazil,BR,BRA,Pernambuco,admin
Olinda,-8,-34.85,Brazil,BR,BRA,Pernambuco,
Jaboatao,-8.11,-35.02,Brazil,BR,BRA,Pernambuco,
Petrolina,-9.38,-40.51,Brazil,BR,BRA,Pernambuco,
Caruaru,-8.28,-35.98,Brazil,BR,BRA,Pernambuco,
Carpina,-7.84,-35.26,Brazil,BR,BRA,Pernambuco,
Santo Agostinho,-8.29,-35.03,Brazil,BR,BRA,Pernambuco,
Garanhuns,-8.89,-36.5,Brazil,BR,BRA,Pernambuco,
Goiana,-7.5596,-35,Brazil,BR,BRA,Pernambuco,
Timbauba,-7.4996,-35.32,Brazil,BR,BRA,Pernambuco,
Arcoverde,-8.42,-37.07,Brazil,BR,BRA,Pernambuco,
Salgueiro,-8.0596,-39.13,Brazil,BR,BRA,Pernambuco,
Barreiros,-8.8296,-35.2,Brazil,BR,BRA,Pernambuco,
Teresina,-5.095,-42.78,Brazil,BR,BRA,Piauí,admin
Parnaiba,-2.91,-41.77,Brazil,BR,BRA,Piauí,
Picos,-7.08,-41.44,Brazil,BR,BRA,Piauí,
Floriano,-6.7696,-43.03,Brazil,BR,BRA,Piauí,
Piripiri,-4.2696,-41.79,Brazil,BR,BRA,Piauí,
Campo Maior,-4.82,-42.18,Brazil,BR,BRA,Piauí,
Barras,-4.25,-42.3,Brazil,BR,BRA,Piauí,
Rio de Janeiro,-22.925,-43.225,Brazil,BR,BRA,Rio de Janeiro,admin
Niteroi,-22.9,-43.1,Brazil,BR,BRA,Rio de Janeiro,
Iguacu,-22.74,-43.47,Brazil,BR,BRA,Rio de Janeiro,
Volta Redonda,-22.5196,-44.095,Brazil,BR,BRA,Rio de Janeiro,
Campos,-21.75,-41.32,Brazil,BR,BRA,Rio de Janeiro,
Petropolis,-22.5095,-43.2,Brazil,BR,BRA,Rio de Janeiro,
Cabo Frio,-22.89,-42.04,Brazil,BR,BRA,Rio de Janeiro,
Nova Friburgo,-22.26,-42.54,Brazil,BR,BRA,Rio de Janeiro,
Barra Mansa,-22.56,-44.17,Brazil,BR,BRA,Rio de Janeiro,
Macae,-22.38,-41.79,Brazil,BR,BRA,Rio de Janeiro,
Miracema,-21.41,-42.2,Brazil,BR,BRA,Rio de Janeiro,
Natal,-5.78,-35.24,Brazil,BR,BRA,Rio Grande do Norte,admin
Mossoro,-5.19,-37.34,Brazil,BR,BRA,Rio Grande do Norte,
Caico,-6.4596,-37.1,Brazil,BR,BRA,Rio Grande do Norte,
Santa Cruz,-6.22,-36.03,Brazil,BR,BRA,Rio Grande do Norte,
Nova Cruz,-6.4696,-35.44,Brazil,BR,BRA,Rio Grande do Norte,
Apodi,-5.65,-37.8,Brazil,BR,BRA,Rio Grande do Norte,
Acu,-5.5796,-36.9101,Brazil,BR,BRA,Rio Grande do Norte,
Porto Alegre,-30.05,-51.2,Brazil,BR,BRA,Rio Grande do Sul,admin
Novo Hamburgo,-29.7096,-51.14,Brazil,BR,BRA,Rio Grande do Sul,
Canoas,-29.92,-51.18,Brazil,BR,BRA,Rio Grande do Sul,
Caxias do Sul,-29.18,-51.17,Brazil,BR,BRA,Rio Grande do Sul,
Pelotas,-31.75,-52.33,Brazil,BR,BRA,Rio Grande do Sul,
Santa Maria,-29.6833,-53.8,Brazil,BR,BRA,Rio Grande do Sul,
Rio Grande,-32.0495,-52.12,Brazil,BR,BRA,Rio Grande do Sul,
Passo Fundo,-28.25,-52.42,Brazil,BR,BRA,Rio Grande do Sul,
Uruguaiana,-29.7696,-57.09,Brazil,BR,BRA,Rio Grande do Sul,
Santa Cruz do Sul,-29.71,-52.44,Brazil,BR,BRA,Rio Grande do Sul,
Bage,-31.32,-54.1,Brazil,BR,BRA,Rio Grande do Sul,
Erechim,-27.63,-52.27,Brazil,BR,BRA,Rio Grande do Sul,
Bento Goncalves,-29.1695,-51.52,Brazil,BR,BRA,Rio Grande do Sul,
Santana do Livramento,-30.88,-55.53,Brazil,BR,BRA,Rio Grande do Sul,
Cachoeira do Sul,-30.03,-52.91,Brazil,BR,BRA,Rio Grande do Sul,
Ijui,-28.3895,-53.9199,Brazil,BR,BRA,Rio Grande do Sul,
Santo Angelo,-28.3,-54.28,Brazil,BR,BRA,Rio Grande do Sul,
Canela,-29.36,-50.81,Brazil,BR,BRA,Rio Grande do Sul,
Sao Borja,-28.6596,-56.01,Brazil,BR,BRA,Rio Grande do Sul,
Carazinho,-28.29,-52.8,Brazil,BR,BRA,Rio Grande do Sul,
Santa Rosa,-27.8695,-54.46,Brazil,BR,BRA,Rio Grande do Sul,
Vacaria,-28.4996,-50.94,Brazil,BR,BRA,Rio Grande do Sul,
Sao Gabriel,-30.32,-54.32,Brazil,BR,BRA,Rio Grande do Sul,
Camaqua,-30.8396,-51.81,Brazil,BR,BRA,Rio Grande do Sul,
Rosario do Sul,-30.25,-54.92,Brazil,BR,BRA,Rio Grande do Sul,
Osorio,-29.88,-50.27,Brazil,BR,BRA,Rio Grande do Sul,
Sao Luis Gonzaga,-28.41,-54.96,Brazil,BR,BRA,Rio Grande do Sul,
Sao Lourenco do Sul,-31.37,-51.98,Brazil,BR,BRA,Rio Grande do Sul,
Jaguarao,-32.56,-53.37,Brazil,BR,BRA,Rio Grande do Sul,
Santa Vitoria do Palmar,-33.52,-53.37,Brazil,BR,BRA,Rio Grande do Sul,
Quarai,-30.38,-56.4599,Brazil,BR,BRA,Rio Grande do Sul,
Porto Velho,-8.75,-63.9,Brazil,BR,BRA,Rondônia,admin
Vilhena,-12.7166,-60.1166,Brazil,BR,BRA,Rondônia,
Ariquemes,-9.9396,-63.08,Brazil,BR,BRA,Rondônia,
Pimenta Bueno,-11.64,-61.21,Brazil,BR,BRA,Rondônia,
Rolim de Moura,-11.7302,-61.7806,Brazil,BR,BRA,Rondônia,
Guajara-Mirim,-10.8,-65.3499,Brazil,BR,BRA,Rondônia,
Ji-Parana,-10.8333,-61.967,Brazil,BR,BRA,Rondônia,
Principe da Beira,-12.4167,-64.4166,Brazil,BR,BRA,Rondônia,
Abuna,-9.6954,-65.3597,Brazil,BR,BRA,Rondônia,
Boa Vista,2.8161,-60.666,Brazil,BR,BRA,Roraima,admin
Caracarai,1.8162,-61.1277,Brazil,BR,BRA,Roraima,
Florianopolis,-27.58,-48.52,Brazil,BR,BRA,Santa Catarina,admin
Joinvile,-26.32,-48.8399,Brazil,BR,BRA,Santa Catarina,
Itajai,-26.8996,-48.68,Brazil,BR,BRA,Santa Catarina,
Blumenau,-26.92,-49.09,Brazil,BR,BRA,Santa Catarina,
Criciuma,-28.68,-49.39,Brazil,BR,BRA,Santa Catarina,
Lajes,-27.8096,-50.31,Brazil,BR,BRA,Santa Catarina,
Chapeco,-27.1,-52.64,Brazil,BR,BRA,Santa Catarina,
Jaragua do Sul,-26.48,-49.1,Brazil,BR,BRA,Santa Catarina,
Tubarao,-28.48,-49.02,Brazil,BR,BRA,Santa Catarina,
Brusque,-27.13,-48.93,Brazil,BR,BRA,Santa Catarina,
Porto Uniao,-26.2396,-51.08,Brazil,BR,BRA,Santa Catarina,
Cacador,-26.77,-51.02,Brazil,BR,BRA,Santa Catarina,
Ararangua,-28.94,-49.5,Brazil,BR,BRA,Santa Catarina,
Laguna,-28.48,-48.78,Brazil,BR,BRA,Santa Catarina,
Joacaba,-27.17,-51.5,Brazil,BR,BRA,Santa Catarina,
Sao Francisco do Sul,-26.2396,-48.6,Brazil,BR,BRA,Santa Catarina,
Concordia,-27.23,-52.03,Brazil,BR,BRA,Santa Catarina,
Imbituba,-28.2296,-48.66,Brazil,BR,BRA,Santa Catarina,
Canoinhas,-26.18,-50.4,Brazil,BR,BRA,Santa Catarina,
Sao Paulo,-23.5587,-46.625,Brazil,BR,BRA,São Paulo,admin
Campinas,-22.9,-47.1,Brazil,BR,BRA,São Paulo,
Santos,-23.9537,-46.3329,Brazil,BR,BRA,São Paulo,
Sao Jose dos Campos,-23.2,-45.8799,Brazil,BR,BRA,São Paulo,
Santo Andre,-23.6528,-46.5278,Brazil,BR,BRA,São Paulo,
Sorocaba,-23.49,-47.47,Brazil,BR,BRA,São Paulo,
Ribeirao Preto,-21.17,-47.83,Brazil,BR,BRA,São Paulo,
Jundiai,-23.2,-46.88,Brazil,BR,BRA,São Paulo,
Americana,-22.7499,-47.33,Brazil,BR,BRA,São Paulo,
Taubate,-23.0195,-45.56,Brazil,BR,BRA,São Paulo,
Sao Jose do Rio Preto,-20.7996,-49.39,Brazil,BR,BRA,São Paulo,
Piracicaba,-22.71,-47.64,Brazil,BR,BRA,São Paulo,
Bauru,-22.33,-49.08,Brazil,BR,BRA,São Paulo,
Itu,-23.26,-47.3,Brazil,BR,BRA,São Paulo,
Franca,-20.53,-47.39,Brazil,BR,BRA,São Paulo,
Limeira,-22.5495,-47.4,Brazil,BR,BRA,São Paulo,
Marilia,-22.21,-49.95,Brazil,BR,BRA,São Paulo,
Presidente Prudente,-22.12,-51.39,Brazil,BR,BRA,São Paulo,
Sao Carlos,-22.02,-47.89,Brazil,BR,BRA,São Paulo,
Guaratingueta,-22.82,-45.19,Brazil,BR,BRA,São Paulo,
Rio Claro,-22.41,-47.56,Brazil,BR,BRA,São Paulo,
Aracatuba,-21.21,-50.45,Brazil,BR,BRA,São Paulo,
Pindamonhangaba,-22.92,-45.47,Brazil,BR,BRA,São Paulo,
Braganca Paulista,-22.95,-46.55,Brazil,BR,BRA,São Paulo,
Itapetininga,-23.59,-48.04,Brazil,BR,BRA,São Paulo,
Jau,-22.2896,-48.57,Brazil,BR,BRA,São Paulo,
Botucatu,-22.8796,-48.45,Brazil,BR,BRA,São Paulo,
Catanduva,-21.14,-48.98,Brazil,BR,BRA,São Paulo,
Barretos,-20.55,-48.58,Brazil,BR,BRA,São Paulo,
Ourinhos,-22.97,-49.87,Brazil,BR,BRA,São Paulo,
Tatui,-23.35,-47.86,Brazil,BR,BRA,São Paulo,
Itanhaem,-24.18,-46.8,Brazil,BR,BRA,São Paulo,
Assis,-22.6596,-50.42,Brazil,BR,BRA,São Paulo,
Avare,-23.11,-48.93,Brazil,BR,BRA,São Paulo,
Sao Joao da Boa Vista,-21.98,-46.79,Brazil,BR,BRA,São Paulo,
Jabuticabal,-21.25,-48.33,Brazil,BR,BRA,São Paulo,
Itapeva,-23.9796,-48.88,Brazil,BR,BRA,São Paulo,
Tupa,-21.93,-50.52,Brazil,BR,BRA,São Paulo,
Piracununga,-21.99,-47.43,Brazil,BR,BRA,São Paulo,
Registro,-24.49,-47.84,Brazil,BR,BRA,São Paulo,
Andradina,-20.9096,-51.3799,Brazil,BR,BRA,São Paulo,
Batatais,-20.89,-47.59,Brazil,BR,BRA,São Paulo,
Garca,-22.22,-49.66,Brazil,BR,BRA,São Paulo,
Novo Horizonte,-21.4596,-49.22,Brazil,BR,BRA,São Paulo,
Iguape,-24.72,-47.5699,Brazil,BR,BRA,São Paulo,
Fernandopolis,-20.2696,-50.26,Brazil,BR,BRA,São Paulo,
Penapolis,-21.41,-50.08,Brazil,BR,BRA,São Paulo,
Aracaju,-10.9,-37.12,Brazil,BR,BRA,Sergipe,admin
Estancia,-11.2696,-37.45,Brazil,BR,BRA,Sergipe,
Palmas,-10.2377,-48.2878,Brazil,BR,BRA,Tocantins,admin
Gurupi,-11.7196,-49.06,Brazil,BR,BRA,Tocantins,
Araguaina,-7.19,-48.21,Brazil,BR,BRA,Tocantins,
Porto Nacional,-10.7,-48.4199,Brazil,BR,BRA,Tocantins,
Tocantinopolis,-6.3196,-47.42,Brazil,BR,BRA,Tocantins,
Alvorada,-12.47,-49.082,Brazil,BR,BRA,Tocantins,
Kuala Belait,4.5856,114.2019,Brunei,BN,BRN,Belait,admin
Bandar Seri Begawan,4.8833,114.9333,Brunei,BN,BRN,Brunei and Muara,primary
Bangar,4.7086,115.0717,Brunei,BN,BRN,Temburong,admin
Tutong,4.8028,114.6492,Brunei,BN,BRN,Tutong,admin
Blagoevgrad,42.0167,23.1,Bulgaria,BG,BGR,Blagoevgrad,admin
Burgas,42.5146,27.4746,Bulgaria,BG,BGR,Burgas,admin
Dobrich,43.5851,27.84,Bulgaria,BG,BGR,Dobrich,admin
Gabrovo,42.8747,25.3342,Bulgaria,BG,BGR,Gabrovo,admin
Haskovo,41.9438,25.5633,Bulgaria,BG,BGR,Haskovo,admin
Kardzhali,41.65,25.3667,Bulgaria,BG,BGR,Kardzhali,admin
Kyustendil,42.2843,22.6911,Bulgaria,BG,BGR,Kyustendil,admin
Lovech,43.138,24.719,Bulgaria,BG,BGR,Lovech,admin
Montana,43.414,23.237,Bulgaria,BG,BGR,Montana,admin
Pazardzhik,42.2,24.3333,Bulgaria,BG,BGR,Pazardzhik,admin
Pernik,42.61,23.0227,Bulgaria,BG,BGR,Pernik,admin
Pleven,43.4238,24.6134,Bulgaria,BG,BGR,Pleven,admin
Plovdiv,42.154,24.754,Bulgaria,BG,BGR,Plovdiv,admin
Razgrad,43.534,26.536,Bulgaria,BG,BGR,Razgrad,admin
Ruse,43.8537,25.9733,Bulgaria,BG,BGR,Ruse,admin
Shumen,43.27,26.9294,Bulgaria,BG,BGR,Shumen,admin
Silistra,44.1167,27.2667,Bulgaria,BG,BGR,Silistra,admin
Sliven,42.6794,26.33,Bulgaria,BG,BGR,Sliven,admin
Smolyan,41.5853,24.6919,Bulgaria,BG,BGR,Smolyan,admin
Sofia,42.6833,23.3167,Bulgaria,BG,BGR,Sofia-Grad,primary
Stara Zagora,42.4231,25.6227,Bulgaria,BG,BGR,Stara Zagora,admin
Targovishte,43.2592,26.5892,Bulgaria,BG,BGR,Targovishte,admin
Varna,43.2156,27.8953,Bulgaria,BG,BGR,Varna,admin
Veliko Tarnovo,43.0862,25.6555,Bulgaria,BG,BGR,Veliko Tarnovo,admin
Vidin,43.99,22.8725,Bulgaria,BG,BGR,Vidin,admin
Vratsa,43.21,23.5625,Bulgaria,BG,BGR,Vratsa,admin
Yambol,42.4833,26.5,Bulgaria,BG,BGR,Yambol,admin
Dedougou,12.455,-3.464,Burkina Faso,BF,BFA,Boucle du Mouhoun,admin
Nouna,12.729,-3.86,Burkina Faso,BF,BFA,Boucle du Mouhoun,minor
Tougan,13.069,-3.07,Burkina Faso,BF,BFA,Boucle du Mouhoun,minor
Salanso,12.1833,-4.0833,Burkina Faso,BF,BFA,Boucle du Mouhoun,minor
Banfora,10.6304,-4.76,Burkina Faso,BF,BFA,Cascades,admin
Ouagadougou,12.3703,-1.5247,Burkina Faso,BF,BFA,Centre,primary
Tenkodogo,11.7804,-0.3697,Burkina Faso,BF,BFA,Centre-Est,admin
Koupela,12.177,-0.356,Burkina Faso,BF,BFA,Centre-Est,minor
Kaya,13.0904,-1.09,Burkina Faso,BF,BFA,Centre-Nord,admin
Boulsa,12.657,-0.569,Burkina Faso,BF,BFA,Centre-Nord,minor
Koudougou,12.2505,-2.37,Burkina Faso,BF,BFA,Centre-Ouest,admin
Reo,12.3335,-2.4669,Burkina Faso,BF,BFA,Centre-Ouest,minor
Leo,11.094,-2.098,Burkina Faso,BF,BFA,Centre-Ouest,minor
Sapouy,11.5544,-1.7736,Burkina Faso,BF,BFA,Centre-Ouest,minor
Manga,11.662,-1.065,Burkina Faso,BF,BFA,Centre-Sud,admin
Kombissiri,12.064,-1.334,Burkina Faso,BF,BFA,Centre-Sud,minor
Po,11.169,-1.135,Burkina Faso,BF,BFA,Centre-Sud,minor
Fada Ngourma,12.055,0.361,Burkina Faso,BF,BFA,Est,admin
Diapaga,12.077,1.796,Burkina Faso,BF,BFA,Est,minor
Bogande,12.969,-0.138,Burkina Faso,BF,BFA,Est,minor
Bobo-Dioulasso,11.18,-4.29,Burkina Faso,BF,BFA,Hauts-Bassins,admin
Orodara,10.974,-4.908,Burkina Faso,BF,BFA,Hauts-Bassins,
Ouahigouya,13.5704,-2.42,Burkina Faso,BF,BFA,Nord,admin
Yako,12.954,-2.263,Burkina Faso,BF,BFA,Nord,minor
Ziniare,12.577,-1.293,Burkina Faso,BF,BFA,Plateau-Central,admin
Zorgo,12.243,-0.611,Burkina Faso,BF,BFA,Plateau-Central,minor
Dori,14.034,-0.028,Burkina Faso,BF,BFA,Sahel,minor
Djibo,14.099,-1.627,Burkina Faso,BF,BFA,Sahel,minor
Gorom-Gorom,14.45,-0.2333,Burkina Faso,BF,BFA,Sahel,minor
Sebba,13.4364,0.5304,Burkina Faso,BF,BFA,Sahel,minor
Gaoua,10.2992,-3.2508,Burkina Faso,BF,BFA,Sud-Ouest,admin
Gaoua,10.325,-3.174,Burkina Faso,BF,BFA,Sud-Ouest,
Diebougou,10.952,-3.248,Burkina Faso,BF,BFA,Sud-Ouest,minor
Pathein,16.7704,94.75,Burma,MM,MMR,Ayeyawady,admin
Hinthada,17.6483,95.4679,Burma,MM,MMR,Ayeyawady,
Pyapon,16.2933,95.6829,Burma,MM,MMR,Ayeyawady,
Wakema,16.6133,95.1829,Burma,MM,MMR,Ayeyawady,
Nyaungdon,17.0433,95.6429,Burma,MM,MMR,Ayeyawady,
Labutta,16.1619,94.7014,Burma,MM,MMR,Ayeyawady,
Bago,17.32,96.515,Burma,MM,MMR,Bago,admin
Letpandan,17.7819,95.7415,Burma,MM,MMR,Bago,
Pyay,18.8165,95.2114,Burma,MM,MMR,Bago,
Taungoo,18.9483,96.4179,Burma,MM,MMR,Bago,
Pyu,18.4779,96.4379,Burma,MM,MMR,Bago,
Hakha,22.65,93.6167,Burma,MM,MMR,Chin State,admin
Myitkyina,25.3596,97.3928,Burma,MM,MMR,Kachin State,admin
Loikaw,19.665,97.206,Burma,MM,MMR,Kayah State,admin
Hpa-An,16.85,97.6167,Burma,MM,MMR,Kayin State,admin
Pakokku,21.332,95.0866,Burma,MM,MMR,Magway,
Magway,20.1445,94.9196,Burma,MM,MMR,Magway,admin
Yenangyaung,20.4615,94.881,Burma,MM,MMR,Magway,
Chauk,20.9085,94.823,Burma,MM,MMR,Magway,
Allanmyo,19.3783,95.2279,Burma,MM,MMR,Magway,
Mandalay,21.97,96.085,Burma,MM,MMR,Mandalay,admin
Myingyan,21.4618,95.3914,Burma,MM,MMR,Mandalay,
Mawlamyine,16.5004,97.67,Burma,MM,MMR,Mon State,admin
Mudon,16.2618,97.7215,Burma,MM,MMR,Mon State,
Ye,15.2533,97.8679,Burma,MM,MMR,Mon State,
Nay Pyi Taw,19.7666,96.1186,Burma,MM,MMR,Nay Pyi Taw,primary
Sittwe,20.14,92.88,Burma,MM,MMR,Rakhine State,admin
Kyaukpyu,19.429,93.5494,Burma,MM,MMR,Rakhine State,
Monywa,22.105,95.15,Burma,MM,MMR,Sagaing,
Sagaing,21.88,95.962,Burma,MM,MMR,Sagaing,admin
Shwebo,22.5783,95.6929,Burma,MM,MMR,Sagaing,
Taunggyi,20.782,97.038,Burma,MM,MMR,Shan State,admin
Namtu,23.0837,97.4,Burma,MM,MMR,Shan State,
Myeik,12.4541,98.6115,Burma,MM,MMR,Taninthayi,
Dawei,14.098,98.195,Burma,MM,MMR,Taninthayi,admin
Rangoon,16.7834,96.1667,Burma,MM,MMR,Yangon,primary
Thongwa,16.7547,96.5193,Burma,MM,MMR,Yangon,
Bubanza,-3.0833,29.3667,Burundi,BI,BDI,Bubanza,admin
Bujumbura,-3.3761,29.36,Burundi,BI,BDI,Bujumbura Mairie,primary
Isale,-3.3489,29.4839,Burundi,BI,BDI,Bujumbura Rural,admin
Bururi,-3.9507,29.6166,Burundi,BI,BDI,Bururi,admin
Cankuzo,-3.1667,30.5167,Burundi,BI,BDI,Cankuzo,admin
Cibitoke,-2.8869,29.1248,Burundi,BI,BDI,Cibitoke,admin
Gitega,-3.4271,29.9246,Burundi,BI,BDI,Gitega,primary
Karuzi,-3.1,30.163,Burundi,BI,BDI,Karuzi,admin
Kayanza,-2.9,29.5667,Burundi,BI,BDI,Kayanza,admin
Kirundo,-2.5847,30.0972,Burundi,BI,BDI,Kirundo,admin
Makamba,-4.1333,29.8,Burundi,BI,BDI,Makamba,admin
Muramvya,-3.261,29.612,Burundi,BI,BDI,Muramvya,admin
Muyinga,-2.8523,30.3173,Burundi,BI,BDI,Muyinga,admin
Mwaro,-3.5113,29.7051,Burundi,BI,BDI,Mwaro,admin
Gitega,-3.426,29.8436,Burundi,BI,BDI,Mwaro,
Ngozi,-2.912,29.825,Burundi,BI,BDI,Ngozi,admin
Rumonge,-3.9736,29.4386,Burundi,BI,BDI,Rumonge,admin
Rutana,-3.931,29.993,Burundi,BI,BDI,Rutana,admin
Ruyigi,-3.481,30.244,Burundi,BI,BDI,Ruyigi,admin
Sal Rei,16.1761,-22.9172,Cabo Verde,CV,CPV,Boa Vista,admin
Nova Sintra,14.8714,-24.6956,Cabo Verde,CV,CPV,Brava,admin
Porto Ingles,15.1378,-23.2111,Cabo Verde,CV,CPV,Maio,admin
Igreja,15.0339,-24.325,Cabo Verde,CV,CPV,Mosteiros,admin
Pombas,17.1503,-25.0201,Cabo Verde,CV,CPV,Paul,admin
Porto Novo,17.0254,-25.0666,Cabo Verde,CV,CPV,Porto Novo,admin
Praia,14.9167,-23.5167,Cabo Verde,CV,CPV,Praia,primary
Ribeira Brava,16.6158,-24.2983,Cabo Verde,CV,CPV,Ribeira Brava,admin
Ponta do Sol,17.2014,-25.0917,Cabo Verde,CV,CPV,Ribeira Grande,admin
Ribeira Grande,17.1825,-25.065,Cabo Verde,CV,CPV,Ribeira Grande,admin
Cidade Velha,14.9167,-23.6167,Cabo Verde,CV,CPV,Ribeira Grande de Santiago,admin
Espargos,16.7578,-22.9417,Cabo Verde,CV,CPV,Sal,admin
Assomada,15.1,-23.6833,Cabo Verde,CV,CPV,Santa Catarina,admin
Cova Figueira,14.8833,-24.3,Cabo Verde,CV,CPV,Santa Catarina do Fogo,admin
Pedra Badejo,15.1375,-23.5308,Cabo Verde,CV,CPV,Santa Cruz,admin
Sao Domingos,15.0167,-23.5667,Cabo Verde,CV,CPV,São Domingos,admin
Sao Filipe,14.9,-24.5167,Cabo Verde,CV,CPV,São Filipe,admin
Joao Teves,15.0669,-23.5892,Cabo Verde,CV,CPV,São Lourenço dos Órgãos,admin
Calheta de Sao Miguel,15.1833,-23.6,Cabo Verde,CV,CPV,São Miguel,admin
Picos,15.0833,-23.65,Cabo Verde,CV,CPV,São Salvador do Mundo,admin
Mindelo,16.8838,-25,Cabo Verde,CV,CPV,São Vicente,admin
Tarrafal,15.2833,-23.7667,Cabo Verde,CV,CPV,Tarrafal,admin
Tarrafal,16.5658,-24.3558,Cabo Verde,CV,CPV,Tarrafal de São Nicolau,admin
Sisophon,13.5838,102.9833,Cambodia,KH,KHM,Banteay Meanchey,admin
Battambang,13.1,103.2,Cambodia,KH,KHM,Battambang,admin
Kampong Cham,12.0004,105.45,Cambodia,KH,KHM,Kampong Cham,admin
Kampong Chhnang,12.2505,104.6666,Cambodia,KH,KHM,Kampong Chhnang,admin
Kampong Speu,11.452,104.519,Cambodia,KH,KHM,Kampong Speu,admin
Kampong Thom,12.7111,104.8887,Cambodia,KH,KHM,Kampong Thom,admin
Kampong Thum,12.712,104.889,Cambodia,KH,KHM,Kampong Thom,
Kampot,10.6171,104.1833,Cambodia,KH,KHM,Kampot,admin
Ta Khmau,11.4833,104.95,Cambodia,KH,KHM,Kandal,admin
Krong Kep,10.4829,104.3167,Cambodia,KH,KHM,Kep,admin
Koh Kong,11.6175,102.9849,Cambodia,KH,KHM,Koh Kong,admin
Kratie,12.469,106.024,Cambodia,KH,KHM,Kratie,admin
Sen Monorom,12.45,107.2,Cambodia,KH,KHM,Mondolkiri,admin
Samraong,14.1817,103.5176,Cambodia,KH,KHM,Oddar Meanchey,admin
Pailin,12.8489,102.6093,Cambodia,KH,KHM,Pailin,admin
Phnom Penh,11.55,104.9166,Cambodia,KH,KHM,Phnom Penh,primary
Tbeng Meanchey,13.8167,104.9667,Cambodia,KH,KHM,Preah Vihear,admin
Prey Veng,11.484,105.324,Cambodia,KH,KHM,Prey Veng,admin
Pursat,12.5337,103.9167,Cambodia,KH,KHM,Pursat,admin
Banlung,13.7394,106.9873,Cambodia,KH,KHM,Ratanakiri,admin
Lumphat,13.507,106.981,Cambodia,KH,KHM,Ratanakiri,minor
Siem Reap,13.3666,103.85,Cambodia,KH,KHM,Siem Reap,admin
Sihanoukville,10.6359,103.5017,Cambodia,KH,KHM,Sihanoukville,admin
Stung Treng,13.523,105.974,Cambodia,KH,KHM,Stung Treng,admin
Svay Rieng,11.08,105.801,Cambodia,KH,KHM,Svay Rieng,admin
Takeo,10.9838,104.7833,Cambodia,KH,KHM,Takeo,admin
Suong,11.9118,105.6582,Cambodia,KH,KHM,Tbong Khmum,admin
Ngaoundere,7.3204,13.58,Cameroon,CM,CMR,Adamaoua,admin
Meiganga,6.5205,14.29,Cameroon,CM,CMR,Adamaoua,
Tibati,6.467,12.6333,Cameroon,CM,CMR,Adamaoua,
Kontcha,7.967,12.2333,Cameroon,CM,CMR,Adamaoua,
Yaounde,3.8667,11.5167,Cameroon,CM,CMR,Centre,primary
Mbalmayo,3.5204,11.5,Cameroon,CM,CMR,Centre,
Bafia,4.7504,11.23,Cameroon,CM,CMR,Centre,
Eseka,3.6504,10.7666,Cameroon,CM,CMR,Centre,
Bertoua,4.5804,13.68,Cameroon,CM,CMR,Est,admin
Batouri,4.4337,14.3666,Cameroon,CM,CMR,Est,
Belabo,4.9337,13.3,Cameroon,CM,CMR,Est,
Abong Mbang,3.9837,13.1833,Cameroon,CM,CMR,Est,
Maroua,10.5956,14.3247,Cameroon,CM,CMR,Extrême-Nord,admin
Douala,4.0604,9.71,Cameroon,CM,CMR,Littoral,admin
Edea,3.8005,10.12,Cameroon,CM,CMR,Littoral,
Nkongsamba,4.9604,9.94,Cameroon,CM,CMR,Littoral,
Garoua,9.3,13.39,Cameroon,CM,CMR,Nord,admin
Guider,9.9304,13.94,Cameroon,CM,CMR,Nord,
Mbe,7.8504,13.6,Cameroon,CM,CMR,Nord,
Bamenda,5.96,10.15,Cameroon,CM,CMR,North-West,admin
Kumbo,6.2204,10.68,Cameroon,CM,CMR,North-West,
Wum,6.4004,10.07,Cameroon,CM,CMR,North-West,
Bafoussam,5.4904,10.4099,Cameroon,CM,CMR,Ouest,admin
Bafang,5.1704,10.18,Cameroon,CM,CMR,Ouest,
Foumban,5.7304,10.9,Cameroon,CM,CMR,Ouest,
Limbe,4.0304,9.19,Cameroon,CM,CMR,South-West,
Kumba,4.6404,9.44,Cameroon,CM,CMR,South-West,
Buea,4.155,9.231,Cameroon,CM,CMR,South-West,admin
Aiyomojok,5.7504,8.9833,Cameroon,CM,CMR,South-West,
Ebolowa,2.9,11.15,Cameroon,CM,CMR,Sud,admin
Kribi,2.9404,9.91,Cameroon,CM,CMR,Sud,
Calgary,51.083,-114.08,Canada,CA,CAN,Alberta,
Edmonton,53.55,-113.5,Canada,CA,CAN,Alberta,admin
Grande Prairie,55.1666,-118.8,Canada,CA,CAN,Alberta,
Fort McMurray,56.7333,-111.3833,Canada,CA,CAN,Alberta,
Wetaskiwin,52.9666,-113.3833,Canada,CA,CAN,Alberta,
Red Deer,52.2666,-113.8,Canada,CA,CAN,Alberta,
Lethbridge,49.7005,-112.8333,Canada,CA,CAN,Alberta,
Medicine Hat,50.0333,-110.6833,Canada,CA,CAN,Alberta,
Camrose,53.0167,-112.8166,Canada,CA,CAN,Alberta,
Brooks,50.5671,-111.9,Canada,CA,CAN,Alberta,
Hinton,53.4,-117.5834,Canada,CA,CAN,Alberta,
Banff,51.178,-115.5719,Canada,CA,CAN,Alberta,
Vegreville,53.5,-112.05,Canada,CA,CAN,Alberta,
Peace River,56.2333,-117.2833,Canada,CA,CAN,Alberta,
Jasper,52.8833,-118.0834,Canada,CA,CAN,Alberta,
Fort Chipewyan,58.7171,-111.15,Canada,CA,CAN,Alberta,
Lac La Biche,54.7719,-111.9647,Canada,CA,CAN,Alberta,
Athabasca,54.717,-113.2666,Canada,CA,CAN,Alberta,
Lake Louise,51.4337,-116.1833,Canada,CA,CAN,Alberta,
Stettler,52.333,-112.6833,Canada,CA,CAN,Alberta,
Upper Hay River,59.0333,-117.683,Canada,CA,CAN,Alberta,
Vancouver,49.2734,-123.1216,Canada,CA,CAN,British Columbia,
Victoria,48.4333,-123.35,Canada,CA,CAN,British Columbia,admin
Abbotsford,49.0504,-122.3,Canada,CA,CAN,British Columbia,
Kelowna,49.9,-119.4833,Canada,CA,CAN,British Columbia,
Chilliwack,49.1666,-121.95,Canada,CA,CAN,British Columbia,
Penticton,49.5004,-119.5833,Canada,CA,CAN,British Columbia,
Campbell River,50.0171,-125.25,Canada,CA,CAN,British Columbia,
Courtenay,49.6833,-125,Canada,CA,CAN,British Columbia,
Fort Saint John,56.25,-120.8333,Canada,CA,CAN,British Columbia,
Nanaimo,49.146,-123.9343,Canada,CA,CAN,British Columbia,
Kamloops,50.6667,-120.3333,Canada,CA,CAN,British Columbia,
Prince George,53.9167,-122.7667,Canada,CA,CAN,British Columbia,
Terrace,54.5,-128.5833,Canada,CA,CAN,British Columbia,
Cranbrook,49.5167,-115.7667,Canada,CA,CAN,British Columbia,
Prince Rupert,54.3167,-130.33,Canada,CA,CAN,British Columbia,
Williams Lake,52.1166,-122.15,Canada,CA,CAN,British Columbia,
Quesnel,52.9837,-122.4833,Canada,CA,CAN,British Columbia,
Powell River,49.8837,-124.55,Canada,CA,CAN,British Columbia,
Nelson,49.4837,-117.2833,Canada,CA,CAN,British Columbia,
Dawson Creek,55.767,-120.2333,Canada,CA,CAN,British Columbia,
Revelstoke,51.0005,-118.1833,Canada,CA,CAN,British Columbia,
Creston,49.1,-116.5167,Canada,CA,CAN,British Columbia,
Port Hardy,50.7171,-127.5,Canada,CA,CAN,British Columbia,
Fort Nelson,58.8167,-122.533,Canada,CA,CAN,British Columbia,
Smithers,54.7666,-127.1666,Canada,CA,CAN,British Columbia,
Lillooet,50.6837,-121.9333,Canada,CA,CAN,British Columbia,
Burns Lake,54.217,-125.7666,Canada,CA,CAN,British Columbia,
Tofino,49.1521,-125.9031,Canada,CA,CAN,British Columbia,
Bella Bella,52.1484,-128.1173,Canada,CA,CAN,British Columbia,
Sandspit,53.2404,-131.8333,Canada,CA,CAN,British Columbia,
Dease Lake,58.4503,-130.0333,Canada,CA,CAN,British Columbia,
Winnipeg,49.883,-97.166,Canada,CA,CAN,Manitoba,admin
Brandon,49.8333,-99.95,Canada,CA,CAN,Manitoba,
Thompson,55.7499,-97.8666,Canada,CA,CAN,Manitoba,
Selkirk,50.15,-96.8833,Canada,CA,CAN,Manitoba,
Steinbach,49.5171,-96.6833,Canada,CA,CAN,Manitoba,
Dauphin,51.15,-100.05,Canada,CA,CAN,Manitoba,
Flin Flon,54.7666,-101.8833,Canada,CA,CAN,Manitoba,
The Pas,53.8166,-101.2333,Canada,CA,CAN,Manitoba,
Gimli,50.6333,-97,Canada,CA,CAN,Manitoba,
Nelson House,55.8005,-98.85,Canada,CA,CAN,Manitoba,
Oxford House,54.9504,-95.2666,Canada,CA,CAN,Manitoba,
Norway House,53.9666,-97.8333,Canada,CA,CAN,Manitoba,
Gillam,56.35,-94.7,Canada,CA,CAN,Manitoba,
Churchill,58.766,-94.166,Canada,CA,CAN,Manitoba,
Berens River,52.3666,-97.0333,Canada,CA,CAN,Manitoba,
Shamattawa,55.8504,-92.0833,Canada,CA,CAN,Manitoba,
Lynn Lake,56.85,-101.05,Canada,CA,CAN,Manitoba,
Pukatawagan,55.7333,-101.3166,Canada,CA,CAN,Manitoba,
Brochet,57.8832,-101.6666,Canada,CA,CAN,Manitoba,
Island Lake,53.9666,-94.7666,Canada,CA,CAN,Manitoba,
Moncton,46.0833,-64.7667,Canada,CA,CAN,New Brunswick,
Fredericton,45.95,-66.6333,Canada,CA,CAN,New Brunswick,admin
Saint John,45.267,-66.0767,Canada,CA,CAN,New Brunswick,
Edmundston,47.3794,-68.3333,Canada,CA,CAN,New Brunswick,
Bathurst,47.6,-65.65,Canada,CA,CAN,New Brunswick,
Saint John's,47.585,-52.681,Canada,CA,CAN,Newfoundland and Labrador,admin
Corner Brook,48.95,-57.9333,Canada,CA,CAN,Newfoundland and Labrador,
Happy Valley,53.3,-60.3,Canada,CA,CAN,Newfoundland and Labrador,
Stephenville,48.5504,-58.5666,Canada,CA,CAN,Newfoundland and Labrador,
Deer Lake,49.1744,-57.4269,Canada,CA,CAN,Newfoundland and Labrador,
Saint Anthony,51.3837,-55.6,Canada,CA,CAN,Newfoundland and Labrador,
Channel-Port aux Basques,47.567,-59.15,Canada,CA,CAN,Newfoundland and Labrador,
Gander,48.95,-54.55,Canada,CA,CAN,Newfoundland and Labrador,
Nain,56.5474,-61.686,Canada,CA,CAN,Newfoundland and Labrador,
Argentia,47.3004,-53.99,Canada,CA,CAN,Newfoundland and Labrador,
La Scie,49.967,-55.583,Canada,CA,CAN,Newfoundland and Labrador,
Buchans,48.817,-56.8666,Canada,CA,CAN,Newfoundland and Labrador,
Cartwright,53.7014,-57.0121,Canada,CA,CAN,Newfoundland and Labrador,
Trout River,49.4837,-58.1166,Canada,CA,CAN,Newfoundland and Labrador,
Forteau Bay,51.4504,-56.95,Canada,CA,CAN,Newfoundland and Labrador,
Hopedale,55.45,-60.2167,Canada,CA,CAN,Newfoundland and Labrador,
Trepassey,46.737,-53.3633,Canada,CA,CAN,Newfoundland and Labrador,
Port Hope Simpson,52.5333,-56.3,Canada,CA,CAN,Newfoundland and Labrador,
Rigolet,54.1766,-58.4473,Canada,CA,CAN,Newfoundland and Labrador,
Yellowknife,62.442,-114.397,Canada,CA,CAN,Northwest Territories,admin
Fort Good Hope,66.2666,-128.6333,Canada,CA,CAN,Northwest Territories,
Hay River,60.85,-115.7,Canada,CA,CAN,Northwest Territories,
Inuvik,68.35,-133.7,Canada,CA,CAN,Northwest Territories,
Fort McPherson,67.4915,-134.895,Canada,CA,CAN,Northwest Territories,
Norman Wells,65.2837,-126.85,Canada,CA,CAN,Northwest Territories,
Tuktoyaktuk,69.4548,-133.0492,Canada,CA,CAN,Northwest Territories,
Deline,65.1833,-123.4167,Canada,CA,CAN,Northwest Territories,
Fort Smith,60,-111.8833,Canada,CA,CAN,Northwest Territories,
Holman,70.7334,-117.75,Canada,CA,CAN,Northwest Territories,
Fort Resolution,61.1666,-113.683,Canada,CA,CAN,Northwest Territories,
Paulatuk,69.3833,-123.9833,Canada,CA,CAN,Northwest Territories,
Fort Simpson,61.85,-121.3333,Canada,CA,CAN,Northwest Territories,
Tsiigehtchic,67.4333,-133.75,Canada,CA,CAN,Northwest Territories,
Lutselk'e,62.4001,-110.7333,Canada,CA,CAN,Northwest Territories,
Halifax,44.65,-63.6,Canada,CA,CAN,Nova Scotia,admin
Sydney,46.0661,-60.18,Canada,CA,CAN,Nova Scotia,
New Glasgow,45.5833,-62.6333,Canada,CA,CAN,Nova Scotia,
Amherst,45.8166,-64.2166,Canada,CA,CAN,Nova Scotia,
Yarmouth,43.8308,-66.1126,Canada,CA,CAN,Nova Scotia,
Liverpool,44.04,-64.72,Canada,CA,CAN,Nova Scotia,
Antigonish,45.6269,-61.9982,Canada,CA,CAN,Nova Scotia,
Digby,44.6226,-65.7605,Canada,CA,CAN,Nova Scotia,
Windsor,44.9806,-64.1291,Canada,CA,CAN,Nova Scotia,
Shelburne,43.7656,-65.3194,Canada,CA,CAN,Nova Scotia,
Baddeck,46.1,-60.754,Canada,CA,CAN,Nova Scotia,
Iqaluit,63.7505,-68.5002,Canada,CA,CAN,Nunavut,admin
Rankin Inlet,62.8167,-92.0953,Canada,CA,CAN,Nunavut,
Arviat,61.1086,-94.0586,Canada,CA,CAN,Nunavut,
Baker Lake,64.317,-96.0167,Canada,CA,CAN,Nunavut,
Cape Dorset,64.3125,-76.5386,Canada,CA,CAN,Nunavut,
Repulse Bay,66.5295,-86.2829,Canada,CA,CAN,Nunavut,
Arctic Bay,73.0333,-85.1666,Canada,CA,CAN,Nunavut,
Kimmirut,62.85,-69.8833,Canada,CA,CAN,Nunavut,
Igloolik,69.2565,-81.7936,Canada,CA,CAN,Nunavut,
Pond Inlet,72.685,-78.0001,Canada,CA,CAN,Nunavut,
Cambridge Bay,69.117,-105.0333,Canada,CA,CAN,Nunavut,
Pangnirtung,66.1333,-65.75,Canada,CA,CAN,Nunavut,
Kugluktuk,67.7987,-115.1254,Canada,CA,CAN,Nunavut,
Gjoa Haven,68.6333,-95.9167,Canada,CA,CAN,Nunavut,
Coral Harbour,64.1538,-83.1766,Canada,CA,CAN,Nunavut,
Taloyoak,69.5333,-93.5333,Canada,CA,CAN,Nunavut,
Hall Beach,68.7675,-81.2361,Canada,CA,CAN,Nunavut,
Chesterfield Inlet,63.3383,-90.7001,Canada,CA,CAN,Nunavut,
Resolute,74.6833,-94.9,Canada,CA,CAN,Nunavut,
Alert,82.4833,-62.25,Canada,CA,CAN,Nunavut,
Grise Fiord,76.4417,-82.95,Canada,CA,CAN,Nunavut,
Ennadai,61.1333,-100.8833,Canada,CA,CAN,Nunavut,
Toronto,43.7,-79.42,Canada,CA,CAN,Ontario,admin
Ottawa,45.4167,-75.7,Canada,CA,CAN,Ontario,primary
Hamilton,43.25,-79.83,Canada,CA,CAN,Ontario,
Oshawa,43.88,-78.85,Canada,CA,CAN,Ontario,
Kitchener,43.45,-80.5,Canada,CA,CAN,Ontario,
London,42.97,-81.25,Canada,CA,CAN,Ontario,
Windsor,42.3333,-83.0333,Canada,CA,CAN,Ontario,
Barrie,44.3838,-79.7,Canada,CA,CAN,Ontario,
Sudbury,46.5,-80.9666,Canada,CA,CAN,Ontario,
Sarnia,42.9666,-82.4,Canada,CA,CAN,Ontario,
Kingston,44.2337,-76.4833,Canada,CA,CAN,Ontario,
Peterborough,44.3,-78.3333,Canada,CA,CAN,Ontario,
Cornwall,45.0171,-74.7333,Canada,CA,CAN,Ontario,
Belleville,44.1667,-77.3833,Canada,CA,CAN,Ontario,
Orangeville,43.9171,-80.0833,Canada,CA,CAN,Ontario,
Brockville,44.5893,-75.6953,Canada,CA,CAN,Ontario,
Thunder Bay,48.4462,-89.275,Canada,CA,CAN,Ontario,
North Bay,46.3,-79.45,Canada,CA,CAN,Ontario,
Orillia,44.6,-79.4167,Canada,CA,CAN,Ontario,
Timmins,48.4666,-81.3333,Canada,CA,CAN,Ontario,
Owen Sound,44.5666,-80.85,Canada,CA,CAN,Ontario,
Pembroke,45.8503,-77.1166,Canada,CA,CAN,Ontario,
Kenora,49.7667,-94.4666,Canada,CA,CAN,Ontario,
Kapuskasing,49.4167,-82.4333,Canada,CA,CAN,Ontario,
Dryden,49.7833,-92.8333,Canada,CA,CAN,Ontario,
Sioux Lookout,50.263,-91.9166,Canada,CA,CAN,Ontario,
Cochrane,49.067,-81.0166,Canada,CA,CAN,Ontario,
Wawa,48.0004,-84.7833,Canada,CA,CAN,Ontario,
Parry Sound,45.3337,-80.033,Canada,CA,CAN,Ontario,
New Liskeard,47.5,-79.6666,Canada,CA,CAN,Ontario,
Hearst,49.7005,-83.6666,Canada,CA,CAN,Ontario,
Marathon,48.7504,-86.3667,Canada,CA,CAN,Ontario,
Deer Lake,52.617,-94.0666,Canada,CA,CAN,Ontario,
Atikokan,48.7504,-91.6166,Canada,CA,CAN,Ontario,
Chapleau,47.8337,-83.4,Canada,CA,CAN,Ontario,
Wiarton,44.7337,-81.1333,Canada,CA,CAN,Ontario,
Attawapiskat,52.9166,-82.4333,Canada,CA,CAN,Ontario,
Red Lake,51.0337,-93.8333,Canada,CA,CAN,Ontario,
Moosonee,51.2806,-80.658,Canada,CA,CAN,Ontario,
Little Current,45.967,-81.9333,Canada,CA,CAN,Ontario,
Thessalon,46.25,-83.55,Canada,CA,CAN,Ontario,
Cobalt,47.3837,-79.6833,Canada,CA,CAN,Ontario,
Geraldton,49.7166,-86.9666,Canada,CA,CAN,Ontario,
Nipigon,49.017,-88.25,Canada,CA,CAN,Ontario,
Cat Lake,51.717,-91.8,Canada,CA,CAN,Ontario,
Fort Severn,55.9833,-87.65,Canada,CA,CAN,Ontario,
Lansdowne House,52.2166,-87.8833,Canada,CA,CAN,Ontario,
Big Beaverhouse,52.95,-89.8833,Canada,CA,CAN,Ontario,
Charlottetown,46.2493,-63.1313,Canada,CA,CAN,Prince Edward Island,admin
Montreal,45.5,-73.5833,Canada,CA,CAN,Québec,
Quebec,46.84,-71.2456,Canada,CA,CAN,Québec,admin
Sherbrooke,45.4,-71.9,Canada,CA,CAN,Québec,
Trois-Rivieres,46.35,-72.5499,Canada,CA,CAN,Québec,
Drummondville,45.8833,-72.4834,Canada,CA,CAN,Québec,
Shawinigan,46.5504,-72.7333,Canada,CA,CAN,Québec,
Victoriaville,46.0504,-71.9667,Canada,CA,CAN,Québec,
Rouyn-Noranda,48.25,-79.0332,Canada,CA,CAN,Québec,
Riviere-du-Loup,47.8333,-69.5333,Canada,CA,CAN,Québec,
Saint-Jerome,45.7666,-74,Canada,CA,CAN,Québec,
Chicoutimi,48.4333,-71.0667,Canada,CA,CAN,Québec,
Joliette,46.0333,-73.4333,Canada,CA,CAN,Québec,
Rimouski,48.4337,-68.5167,Canada,CA,CAN,Québec,
Saint-Georges,46.1171,-70.6667,Canada,CA,CAN,Québec,
Sept-Iles,50.3161,-66.36,Canada,CA,CAN,Québec,
Val-d'Or,48.1166,-77.7666,Canada,CA,CAN,Québec,
Dolbeau,48.8666,-72.2333,Canada,CA,CAN,Québec,
Mont-Laurier,46.5504,-75.5,Canada,CA,CAN,Québec,
Amos,48.5666,-78.1167,Canada,CA,CAN,Québec,
Baie-Comeau,49.2227,-68.158,Canada,CA,CAN,Québec,
La Sarre,48.8,-79.2,Canada,CA,CAN,Québec,
Gaspe,48.8373,-64.4934,Canada,CA,CAN,Québec,
Baie-du-Poste,50.4171,-73.8666,Canada,CA,CAN,Québec,
Schefferville,54.8,-66.8167,Canada,CA,CAN,Québec,
Saint-Augustin,51.2423,-58.647,Canada,CA,CAN,Québec,
Matagami,49.7504,-77.6333,Canada,CA,CAN,Québec,
Inukjuak,58.47,-78.136,Canada,CA,CAN,Québec,
Cap-Chat,49.1,-66.6833,Canada,CA,CAN,Québec,
Kuujjuaq,58.1,-68.4,Canada,CA,CAN,Québec,
Natashquan,50.1913,-61.8107,Canada,CA,CAN,Québec,
Mingan,50.3018,-64.0173,Canada,CA,CAN,Québec,
Kangirsuk,60.0248,-69.9991,Canada,CA,CAN,Québec,
Eastmain,52.2333,-78.5167,Canada,CA,CAN,Québec,
Radisson,53.7836,-77.6166,Canada,CA,CAN,Québec,
Port-Menier,49.8226,-64.348,Canada,CA,CAN,Québec,
Ivujivik,62.4166,-77.9,Canada,CA,CAN,Québec,
Salluit,62.1826,-75.6595,Canada,CA,CAN,Québec,
Saskatoon,52.17,-106.67,Canada,CA,CAN,Saskatchewan,
Regina,50.45,-104.617,Canada,CA,CAN,Saskatchewan,admin
Moose Jaw,50.4,-105.55,Canada,CA,CAN,Saskatchewan,
Weyburn,49.6666,-103.85,Canada,CA,CAN,Saskatchewan,
Meadow Lake,54.1301,-108.4347,Canada,CA,CAN,Saskatchewan,
Prince Albert,53.2,-105.75,Canada,CA,CAN,Saskatchewan,
North Battleford,52.7666,-108.2833,Canada,CA,CAN,Saskatchewan,
Yorkton,51.2171,-102.4665,Canada,CA,CAN,Saskatchewan,
Swift Current,50.2837,-107.7666,Canada,CA,CAN,Saskatchewan,
Melville,50.9333,-102.8,Canada,CA,CAN,Saskatchewan,
Kindersley,51.467,-109.1333,Canada,CA,CAN,Saskatchewan,
La Ronge,55.1,-105.3,Canada,CA,CAN,Saskatchewan,
Biggar,52.0504,-107.9833,Canada,CA,CAN,Saskatchewan,
Hudson Bay,52.8504,-102.3833,Canada,CA,CAN,Saskatchewan,
Stony Rapids,59.2666,-105.8333,Canada,CA,CAN,Saskatchewan,
Uranium City,59.5666,-108.6166,Canada,CA,CAN,Saskatchewan,
Whitehorse,60.7167,-135.05,Canada,CA,CAN,Yukon,admin
Dawson,64.0666,-139.4167,Canada,CA,CAN,Yukon,
Watson Lake,60.1166,-128.8,Canada,CA,CAN,Yukon,
Burwash Landing,61.3504,-139,Canada,CA,CAN,Yukon,
George Town,19.2804,-81.33,Cayman Islands,KY,CYM,,
Ndele,8.4091,20.653,Central African Republic,CF,CAF,Bamingui-Bangoran,admin
Bangui,4.3666,18.5583,Central African Republic,CF,CAF,Bangui,primary
Mobaye,4.32,21.18,Central African Republic,CF,CAF,Basse-Kotto,admin
Obo,5.4,26.5,Central African Republic,CF,CAF,Haut-Mbomou,admin
Bria,6.5333,21.9833,Central African Republic,CF,CAF,Haute-Kotto,admin
Ouadda,8.0671,22.4,Central African Republic,CF,CAF,Haute-Kotto,
Sibut,5.7338,19.0833,Central African Republic,CF,CAF,Kémo,admin
Mbaiki,3.8704,18,Central African Republic,CF,CAF,Lobaye,admin
Berberati,4.25,15.78,Central African Republic,CF,CAF,Mambéré-Kadéï,admin
Bangassou,4.7338,22.8166,Central African Republic,CF,CAF,Mbomou,admin
Kaga Bandoro,6.9804,19.18,Central African Republic,CF,CAF,Nana-Grébizi,admin
Bouar,5.95,15.6,Central African Republic,CF,CAF,Nana-Mambéré,admin
Bimbo,4.329,18.5284,Central African Republic,CF,CAF,Ombella-Mpoko,admin
Bossembele,5.267,17.65,Central African Republic,CF,CAF,Ombella-Mpoko,
Bambari,5.762,20.6672,Central African Republic,CF,CAF,Ouaka,admin
Bossangoa,6.4837,17.45,Central African Republic,CF,CAF,Ouham,admin
Bozoum,6.317,16.3833,Central African Republic,CF,CAF,Ouham-Pendé,admin
Nola,3.5337,16.0666,Central African Republic,CF,CAF,Sangha-Mbaéré,admin
Birao,10.2837,22.7833,Central African Republic,CF,CAF,Vakaga,admin
Carnot,4.9337,15.8666,Central African Republic,CF,CAF,,
Zemio,5.0337,25.1333,Central African Republic,CF,CAF,,
Yakossi,5.617,23.3167,Central African Republic,CF,CAF,,
Moussoro,13.6414,16.4894,Chad,TD,TCD,Barh el Gazel,admin
Ati,13.2171,18.3333,Chad,TD,TCD,Batha,admin
Oum Hadjer,13.3004,19.6833,Chad,TD,TCD,Batha,
Faya,17.9167,19.1167,Chad,TD,TCD,Borkou,admin
Massenya,11.4039,16.1705,Chad,TD,TCD,Chari-Baguirmi,admin
Am Djarass,16.0659,22.8431,Chad,TD,TCD,Ennedi-Est,admin
Fada,17.1847,21.5902,Chad,TD,TCD,Ennedi-Ouest,admin
Mongo,12.1837,18.7,Chad,TD,TCD,Guéra,admin
Massakory,12.996,15.7293,Chad,TD,TCD,Hadjer-Lamis,admin
Mao,14.1194,15.3133,Chad,TD,TCD,Kanem,admin
Bol,13.459,14.7147,Chad,TD,TCD,Lac,admin
Moundou,8.55,16.09,Chad,TD,TCD,Logone Occidental,admin
Doba,8.6504,16.85,Chad,TD,TCD,Logone Oriental,admin
Koumra,8.9126,17.5539,Chad,TD,TCD,Mandoul,admin
Bongor,10.2859,15.3872,Chad,TD,TCD,Mayo-Kébbi Est,admin
Pala,9.3642,14.9046,Chad,TD,TCD,Mayo-Kébbi Ouest,admin
Pala Oua,9.3504,14.9666,Chad,TD,TCD,Mayo-Kébbi Ouest,
Sarh,9.15,18.39,Chad,TD,TCD,Moyen-Chari,admin
Abeche,13.84,20.83,Chad,TD,TCD,Ouaddaï,admin
Am Timan,11.0333,20.2833,Chad,TD,TCD,Salamat,admin
Goz Beida,12.2248,21.4103,Chad,TD,TCD,Sila,admin
Lai,9.395,16.305,Chad,TD,TCD,Tandjilé,admin
Kelo,9.3171,15.8,Chad,TD,TCD,Tandjilé,
Bardai,21.3549,17.0012,Chad,TD,TCD,Tibesti,admin
Zouar,20.4587,16.5278,Chad,TD,TCD,Tibesti,
N'Djamena,12.1131,15.0491,Chad,TD,TCD,Ville de N’Djaména,primary
Biltine,14.5333,20.9167,Chad,TD,TCD,Wadi Fira,admin
Antofagasta,-23.65,-70.4,Chile,CL,CHL,Antofagasta,admin
Calama,-22.45,-68.92,Chile,CL,CHL,Antofagasta,minor
Tocopilla,-22.09,-70.19,Chile,CL,CHL,Antofagasta,minor
Chuquicamata,-22.32,-68.93,Chile,CL,CHL,Antofagasta,
Taltal,-25.4,-70.47,Chile,CL,CHL,Antofagasta,
Oficina Maria Elena,-22.35,-69.67,Chile,CL,CHL,Antofagasta,
Mejillones,-23.1,-70.45,Chile,CL,CHL,Antofagasta,
Toconao,-23.1829,-68.0166,Chile,CL,CHL,Antofagasta,
Temuco,-38.73,-72.58,Chile,CL,CHL,Araucanía,admin
Angol,-37.79,-72.71,Chile,CL,CHL,Araucanía,minor
Villarrica,-39.28,-72.23,Chile,CL,CHL,Araucanía,
Victoria,-38.2395,-72.34,Chile,CL,CHL,Araucanía,
Nueva Imperial,-38.74,-72.96,Chile,CL,CHL,Araucanía,
Collipulli,-37.96,-72.43,Chile,CL,CHL,Araucanía,
Loncoche,-39.37,-72.63,Chile,CL,CHL,Araucanía,
Carahue,-38.7095,-73.17,Chile,CL,CHL,Araucanía,
Lonquimay,-38.4333,-71.2333,Chile,CL,CHL,Araucanía,
Tolten,-39.2166,-73.2123,Chile,CL,CHL,Araucanía,
Arica,-18.5,-70.29,Chile,CL,CHL,Arica y Parinacota,admin
Cuya,-19.1167,-70.1333,Chile,CL,CHL,Arica y Parinacota,
Copiapo,-27.36,-70.34,Chile,CL,CHL,Atacama,admin
Vallenar,-28.57,-70.76,Chile,CL,CHL,Atacama,minor
Diego de Almagro,-26.3696,-70.05,Chile,CL,CHL,Atacama,
Chanaral,-29.03,-71.43,Chile,CL,CHL,Atacama,
Tierra Amarilla,-27.48,-70.28,Chile,CL,CHL,Atacama,
Caldera,-27.0696,-70.83,Chile,CL,CHL,Atacama,
Huasco,-28.4696,-71.22,Chile,CL,CHL,Atacama,
Coyhaique,-45.57,-72.07,Chile,CL,CHL,Aysén,admin
Puerto Aysen,-45.3999,-72.7,Chile,CL,CHL,Aysén,minor
Cochrane,-47.2663,-72.5499,Chile,CL,CHL,Aysén,minor
Villa O'Higgins,-48.4679,-72.56,Chile,CL,CHL,Aysén,
Concepcion,-36.83,-73.05,Chile,CL,CHL,Biobío,admin
Talcahuano,-36.7167,-73.1167,Chile,CL,CHL,Biobío,
Los Angeles,-37.46,-72.36,Chile,CL,CHL,Biobío,minor
Coronel,-37.03,-73.16,Chile,CL,CHL,Biobío,
Lota,-37.0896,-73.16,Chile,CL,CHL,Biobío,
Curanilahue,-37.48,-73.34,Chile,CL,CHL,Biobío,
Lebu,-37.6096,-73.65,Chile,CL,CHL,Biobío,minor
Quirihue,-36.28,-72.53,Chile,CL,CHL,Biobío,
Santa Barbara,-37.67,-72.02,Chile,CL,CHL,Biobío,
Coquimbo,-29.9529,-71.3436,Chile,CL,CHL,Coquimbo,minor
La Serena,-29.9,-71.25,Chile,CL,CHL,Coquimbo,admin
Ovalle,-30.59,-71.2001,Chile,CL,CHL,Coquimbo,minor
Illapel,-31.6296,-71.17,Chile,CL,CHL,Coquimbo,minor
Salamanca,-31.7796,-70.98,Chile,CL,CHL,Coquimbo,
Vicuna,-30.0295,-70.74,Chile,CL,CHL,Coquimbo,
Combarbala,-31.18,-71,Chile,CL,CHL,Coquimbo,
Rancagua,-34.17,-70.74,Chile,CL,CHL,Libertador General Bernardo O’Higgins,admin
San Fernando,-34.58,-70.99,Chile,CL,CHL,Libertador General Bernardo O’Higgins,minor
Pichilemu,-34.38,-72,Chile,CL,CHL,Libertador General Bernardo O’Higgins,minor
Puerto Montt,-41.47,-72.93,Chile,CL,CHL,Los Lagos,admin
Osorno,-40.57,-73.16,Chile,CL,CHL,Los Lagos,minor
Castro,-42.4808,-73.7623,Chile,CL,CHL,Los Lagos,minor
Ancud,-41.87,-73.83,Chile,CL,CHL,Los Lagos,
Puerto Varas,-41.33,-72.99,Chile,CL,CHL,Los Lagos,
Calbuco,-41.7522,-73.1416,Chile,CL,CHL,Los Lagos,
Quellon,-43.0996,-73.6,Chile,CL,CHL,Los Lagos,
Chonchi,-42.61,-73.8099,Chile,CL,CHL,Los Lagos,
Valdivia,-39.795,-73.245,Chile,CL,CHL,Los Ríos,admin
La Union,-40.29,-73.09,Chile,CL,CHL,Los Ríos,minor
Rio Bueno,-40.34,-72.96,Chile,CL,CHL,Los Ríos,
Los Lagos,-39.8495,-72.83,Chile,CL,CHL,Los Ríos,
Punta Arenas,-53.165,-70.94,Chile,CL,CHL,Magallanes y de la Antártica Chilena,admin
Puerto Natales,-51.7183,-72.5117,Chile,CL,CHL,Magallanes y de la Antártica Chilena,minor
Puerto Williams,-54.9333,-67.6167,Chile,CL,CHL,Magallanes y de la Antártica Chilena,minor
Balsadero Rio Verde,-52.65,-71.4666,Chile,CL,CHL,Magallanes y de la Antártica Chilena,
Talca,-35.455,-71.67,Chile,CL,CHL,Maule,admin
Curico,-34.98,-71.24,Chile,CL,CHL,Maule,minor
Linares,-35.84,-71.59,Chile,CL,CHL,Maule,minor
Constitucion,-35.3296,-72.42,Chile,CL,CHL,Maule,
Cauquenes,-35.96,-72.32,Chile,CL,CHL,Maule,minor
Santiago,-33.45,-70.667,Chile,CL,CHL,Región Metropolitana,primary
San Bernardo,-33.6,-70.7,Chile,CL,CHL,Región Metropolitana,minor
Iquique,-20.25,-70.13,Chile,CL,CHL,Tarapacá,admin
Pozo Almonte,-20.2696,-69.8,Chile,CL,CHL,Tarapacá,minor
Lagunas,-20.9829,-69.6833,Chile,CL,CHL,Tarapacá,
Valparaiso,-33.0478,-71.621,Chile,CL,CHL,Valparaíso,admin
Vina del Mar,-33.03,-71.54,Chile,CL,CHL,Valparaíso,
San Antonio,-33.5995,-71.61,Chile,CL,CHL,Valparaíso,minor
Quillota,-32.88,-71.26,Chile,CL,CHL,Valparaíso,minor
San Felipe,-32.75,-70.72,Chile,CL,CHL,Valparaíso,minor
Los Andes,-32.8296,-70.6,Chile,CL,CHL,Valparaíso,minor
La Ligua,-32.46,-71.24,Chile,CL,CHL,Valparaíso,minor
Chillan,-36.6,-72.106,Chile,CL,CHL,,admin
Hefei,31.85,117.28,China,CN,CHN,Anhui,admin
Suzhou,33.6361,116.9789,China,CN,CHN,Anhui,
Lu'an,31.7503,116.48,China,CN,CHN,Anhui,minor
Huainan,32.63,116.98,China,CN,CHN,Anhui,
Ma'anshan,31.7304,118.48,China,CN,CHN,Anhui,minor
Huaibei,33.9504,116.75,China,CN,CHN,Anhui,
Bengbu,32.95,117.33,China,CN,CHN,Anhui,
Xuanzhou,30.9525,118.7553,China,CN,CHN,Anhui,
Wuhu,31.3504,118.37,China,CN,CHN,Anhui,minor
Anqing,30.5,117.05,China,CN,CHN,Anhui,minor
Wusong,30.9504,117.78,China,CN,CHN,Anhui,minor
Fuyang,32.9004,115.82,China,CN,CHN,Anhui,
Jieshou,33.2504,115.35,China,CN,CHN,Anhui,
Beijing,39.9289,116.3883,China,CN,CHN,Beijing,primary
Changping,40.2248,116.1944,China,CN,CHN,Beijing,
Chongqing,29.565,106.595,China,CN,CHN,Chongqing,admin
Sanzhou,30.82,108.4,China,CN,CHN,Chongqing,
Yong'an,31.0504,109.5167,China,CN,CHN,Chongqing,minor
Zhangzhou,24.5204,117.67,China,CN,CHN,Fujian,minor
Fuzhou,26.08,119.3,China,CN,CHN,Fujian,admin
Xiamen,24.45,118.08,China,CN,CHN,Fujian,minor
Quanzhou,24.9,118.58,China,CN,CHN,Fujian,minor
Putian,25.4303,119.02,China,CN,CHN,Fujian,minor
Longyan,25.1804,117.03,China,CN,CHN,Fujian,minor
Ningde,26.6804,119.5301,China,CN,CHN,Fujian,minor
Nanping,26.6304,118.17,China,CN,CHN,Fujian,minor
Sanming,26.23,117.58,China,CN,CHN,Fujian,minor
Shaowu,27.3004,117.5,China,CN,CHN,Fujian,
Fu'an,27.0704,119.62,China,CN,CHN,Fujian,minor
Changxing,25.867,116.3167,China,CN,CHN,Fujian,
Lanzhou,36.056,103.792,China,CN,CHN,Gansu,admin
Beidao,34.6,105.92,China,CN,CHN,Gansu,minor
Linxia Chengguanzhen,35.6,103.2,China,CN,CHN,Gansu,minor
Wuwei,37.928,102.641,China,CN,CHN,Gansu,minor
Hongzhai,35.0476,104.6394,China,CN,CHN,Gansu,
